[{
  "_id": {
    "$oid": "6539279ee0265e4af914b846"
  },
  "name": "Police Line Dausa",
  "area": "SH-62",
  "district": "Dausa",
  "state": "Rajasthan",
  "pincode": "389180",
  "latitude": "26.9274367705",
  "longitude": "76.3451881647",
  "qr": "http://res.cloudinary.com/ddhncnedj/image/upload/v1698247743/umwedjib3moa3xgd7edv.png",
  "population": 0,
  "latitudes": null,
  "longitudes": null
},
{
  "_id": {
    "$oid": "6539279ee0265e4af914b847"
  },
  "name": "Police Station-Deeg",
  "area": "Varachha Road",
  "district": "Bharatpur",
  "state": "Rajasthan",
  "pincode": "395006",
  "latitude": "27.4733697",
  "longitude": "77.3272506",
  "qr": "http://res.cloudinary.com/ddhncnedj/image/upload/v1698247742/ygvgnzdl60g4vgak7acl.png",
  "population": 0,
  "latitudes": null,
  "longitudes": null
},
{
  "_id": {
    "$oid": "6539279ee0265e4af914b848"
  },
  "name": "Police Station Kotwali Nagaur",
  "area": "Khidmat Nagar",
  "district": "Nagaur",
  "state": "Rajasthan",
  "pincode": "395005",
  "latitude": "27.2039476705",
  "longitude": "73.7230271237",
  "qr": "http://res.cloudinary.com/ddhncnedj/image/upload/v1698247742/vrclrypbcngep4xskiys.png",
  "population": 0,
  "latitudes": null,
  "longitudes": null
},
{
  "_id": {
    "$oid": "6539279ee0265e4af914b849"
  },
  "name": "Police Station-Jhalara",
  "area": "Gaikwad Haveli",
  "district": "Udaipur",
  "state": "Rajasthan",
  "pincode": "380001",
  "latitude": "24.05379",
  "longitude": "74.07782",
  "qr": "http://res.cloudinary.com/ddhncnedj/image/upload/v1698247749/br0osfhrsnn422nplew8.png",
  "population": 0,
  "latitudes": null,
  "longitudes": null
},
{
  "_id": {
    "$oid": "6539279ee0265e4af914b84a"
  },
  "name": "Police Station-Gogunda",
  "area": "Surat",
  "district": "Udaipur",
  "state": "Rajasthan",
  "pincode": "394107",
  "latitude": "24.8056",
  "longitude": "73.44295",
  "qr": "http://res.cloudinary.com/ddhncnedj/image/upload/v1698247743/kqdlhm5y2s7y5foidlqv.png",
  "population": 0,
  "latitudes": null,
  "longitudes": null
},
{
  "_id": {
    "$oid": "6539279ee0265e4af914b84c"
  },
  "name": "Ramseen Police Station",
  "area": "Hazrat Akbar Shahid Tekra",
  "district": "Jalor",
  "state": "Rajasthan",
  "pincode": "395002",
  "latitude": "25.06150833",
  "longitude": "72.43777667",
  "qr": "http://res.cloudinary.com/ddhncnedj/image/upload/v1698247742/dsalhjhlccy9iq2104vv.png",
  "population": 0,
  "latitudes": null,
  "longitudes": null
},
{
  "_id": {
    "$oid": "6539279ee0265e4af914b84d"
  },
  "name": "Police Station-Pushkar",
  "area": "Vadgam 385210",
  "district": "Ajmer",
  "state": "Rajasthan",
  "pincode": "Vadgam 385210",
  "latitude": "26.49891",
  "longitude": "74.54443",
  "qr": "http://res.cloudinary.com/ddhncnedj/image/upload/v1698247742/rzjo3vc8nt3zoanp7tgo.png",
  "population": 0,
  "latitudes": null,
  "longitudes": null
},
{
  "_id": {
    "$oid": "6539279ee0265e4af914b84e"
  },
  "name": "Hanmangarh Reserve Police Line",
  "area": "SH 6",
  "district": "Hanumangarh",
  "state": "Rajasthan",
  "pincode": "394230",
  "latitude": "29.636781",
  "longitude": "74.314783",
  "qr": "http://res.cloudinary.com/ddhncnedj/image/upload/v1698247749/vsb7ajzvg6ihwdkpienj.png",
  "population": 0,
  "latitudes": null,
  "longitudes": null
},
{
  "_id": {
    "$oid": "6539279ee0265e4af914b84f"
  },
  "name": "Office of Commissioner of Police",
  "area": "Naroda Road",
  "district": "Jaipur",
  "state": "Rajasthan",
  "pincode": "382330",
  "latitude": "26.916563",
  "longitude": "75.801378",
  "qr": "http://res.cloudinary.com/ddhncnedj/image/upload/v1698247742/dhxgsbiajphbpjamigp5.png",
  "population": 0,
  "latitudes": null,
  "longitudes": null
},
{
  "_id": {
    "$oid": "6539279ee0265e4af914b850"
  },
  "name": "Police Station",
  "area": "Ahmedabad",
  "district": "Bhilwara",
  "state": "Rajasthan",
  "pincode": "382330",
  "latitude": "25.732783",
  "longitude": "74.334844",
  "qr": "http://res.cloudinary.com/ddhncnedj/image/upload/v1698247749/m91gbqu5x0a0plnfarro.png",
  "population": 0,
  "latitudes": null,
  "longitudes": null
},
{
  "_id": {
    "$oid": "6539279ee0265e4af914b851"
  },
  "name": "Police Chowki-Pachgaon",
  "area": "Hariyana Plot 119",
  "district": "Dhaulpur",
  "state": "Rajasthan",
  "pincode": "364001",
  "latitude": "26.7110169",
  "longitude": "77.8472482",
  "qr": "http://res.cloudinary.com/ddhncnedj/image/upload/v1698247742/rrdcwf7optvpnf1cwrth.png",
  "population": 0,
  "latitudes": null,
  "longitudes": null
},
{
  "_id": {
    "$oid": "6539279ee0265e4af914b852"
  },
  "name": "Police Thana Bharampuri",
  "area": "SH-127",
  "district": "Jaipur",
  "state": "Rajasthan",
  "pincode": "385570",
  "latitude": "26.939256",
  "longitude": "75.828752",
  "qr": "http://res.cloudinary.com/ddhncnedj/image/upload/v1698247743/opx4b7hcqddh1qytn3lt.png",
  "population": 0,
  "latitudes": null,
  "longitudes": null
},
{
  "_id": {
    "$oid": "6539279ee0265e4af914b853"
  },
  "name": "Police Station-Bheem Nagar",
  "area": "Bantwa Pajod Road",
  "district": "Bharatpur",
  "state": "Rajasthan",
  "pincode": "362620",
  "latitude": "26.9304439",
  "longitude": "77.2807263",
  "qr": "http://res.cloudinary.com/ddhncnedj/image/upload/v1698247743/k9kc1dubtjo2xm4iyku6.png",
  "population": 0,
  "latitudes": null,
  "longitudes": null
},
{
  "_id": {
    "$oid": "6539279ee0265e4af914b854"
  },
  "name": "Police Thana Kardhani",
  "area": "Mithakhali",
  "district": "Jaipur",
  "state": "Rajasthan",
  "pincode": "India",
  "latitude": "26.949792",
  "longitude": "75.712954",
  "qr": "http://res.cloudinary.com/ddhncnedj/image/upload/v1698247742/wxwmccuxystgstjy5zeg.png",
  "population": 0,
  "latitudes": null,
  "longitudes": null
},
{
  "_id": {
    "$oid": "6539279ee0265e4af914b855"
  },
  "name": "Police Station Harsh Camp-Sikar",
  "area": "Sankheda",
  "district": "Sikar",
  "state": "Rajasthan",
  "pincode": "India",
  "latitude": "27.5675",
  "longitude": "75.15668",
  "qr": "http://res.cloudinary.com/ddhncnedj/image/upload/v1698247743/yruw7gkcylbk7punodhl.png",
  "population": 0,
  "latitudes": null,
  "longitudes": null
},
{
  "_id": {
    "$oid": "6539279ee0265e4af914b856"
  },
  "name": "Chandpol Police Station",
  "area": "Samta Road",
  "district": "Jodhpur",
  "state": "Rajasthan",
  "pincode": "390003",
  "latitude": "26.298938",
  "longitude": "73.011282",
  "qr": "http://res.cloudinary.com/ddhncnedj/image/upload/v1698247742/pfe1d1nwp9rquambmauo.png",
  "population": 0,
  "latitudes": null,
  "longitudes": null
},
{
  "_id": {
    "$oid": "6539279ee0265e4af914b857"
  },
  "name": "Police Station-Salasar",
  "area": "Vadodara",
  "district": "Churu",
  "state": "Rajasthan",
  "pincode": "India",
  "latitude": "27.72371",
  "longitude": "74.718",
  "qr": "http://res.cloudinary.com/ddhncnedj/image/upload/v1698247743/dsf9emuao7fwdflik8xc.png",
  "population": 0,
  "latitudes": null,
  "longitudes": null
},
{
  "_id": {
    "$oid": "6539279ee0265e4af914b858"
  },
  "name": "Police Station-Chidwa",
  "area": "DSP office",
  "district": "Jhunjhunun",
  "state": "Rajasthan",
  "pincode": "364001",
  "latitude": "28.26034",
  "longitude": "75.64387",
  "qr": "http://res.cloudinary.com/ddhncnedj/image/upload/v1698247743/u9di2l0xd9nmllronuyr.png",
  "population": 0,
  "latitudes": null,
  "longitudes": null
},
{
  "_id": {
    "$oid": "6539279ee0265e4af914b85a"
  },
  "name": "Adarsh Nagar Police Station",
  "area": "Opposite Siddhi Vinayk Ganesh Mandir",
  "district": "Jaipur",
  "state": "Rajasthan",
  "pincode": "380024",
  "latitude": "26.902467",
  "longitude": "75.834593",
  "qr": "http://res.cloudinary.com/ddhncnedj/image/upload/v1698247743/ebq5lktlsrzelauszxzb.png",
  "population": 0,
  "latitudes": null,
  "longitudes": null
},
{
  "_id": {
    "$oid": "6539279ee0265e4af914b85b"
  },
  "name": "Naaka Bandi Police Station",
  "area": "Radhanpur 385340",
  "district": "Pali",
  "state": "Rajasthan",
  "pincode": "Radhanpur 385340",
  "latitude": "25.5226363",
  "longitude": "73.4492251",
  "qr": "http://res.cloudinary.com/ddhncnedj/image/upload/v1698247748/ajenaluzd9zmhuuj3vt8.png",
  "population": 0,
  "latitudes": null,
  "longitudes": null
},
{
  "_id": {
    "$oid": "6539279ee0265e4af914b85c"
  },
  "name": "Police Station-Panigram",
  "area": "Surat",
  "district": "Ajmer",
  "state": "Rajasthan",
  "pincode": "395004",
  "latitude": "26.4551909",
  "longitude": "74.6308517",
  "qr": "http://res.cloudinary.com/ddhncnedj/image/upload/v1698247742/rzvxzx9ugfdsl8ojskia.png",
  "population": 0,
  "latitudes": null,
  "longitudes": null
},
{
  "_id": {
    "$oid": "6539279ee0265e4af914b85e"
  },
  "name": "R k baror",
  "area": "GIDC",
  "district": "Hanumangarh",
  "state": "Rajasthan",
  "pincode": "394230",
  "latitude": "29.61067",
  "longitude": "74.28636",
  "qr": "http://res.cloudinary.com/ddhncnedj/image/upload/v1698247742/brdog3zhfv1zz3qzgeyx.png",
  "population": 0,
  "latitudes": null,
  "longitudes": null
},
{
  "_id": {
    "$oid": "6539279ee0265e4af914b85f"
  },
  "name": "Talera Police Station",
  "area": "Victoria Bridge Road",
  "district": "Bundi",
  "state": "Rajasthan",
  "pincode": "Jamnagar 361120",
  "latitude": "25.315507",
  "longitude": "75.732934",
  "qr": "http://res.cloudinary.com/ddhncnedj/image/upload/v1698247742/gss389i7m192ikjpadrh.png",
  "population": 0,
  "latitudes": null,
  "longitudes": null
},
{
  "_id": {
    "$oid": "6539279ee0265e4af914b860"
  },
  "name": "Police Station-Mandar",
  "area": "Near Maudi Chowkdi",
  "district": "Sirohi",
  "state": "Rajasthan",
  "pincode": "",
  "latitude": "24.5581012852",
  "longitude": "72.3925917119",
  "qr": "http://res.cloudinary.com/ddhncnedj/image/upload/v1698247743/sfaovsxvfml7efnqkwoj.png",
  "population": 0,
  "latitudes": null,
  "longitudes": null
},
{
  "_id": {
    "$oid": "6539279ee0265e4af914b861"
  },
  "name": "Police Station-Thalraka",
  "area": "Upleta 360490",
  "district": "Hanumangarh",
  "state": "Rajasthan",
  "pincode": "Upleta 360490",
  "latitude": "29.2924263",
  "longitude": "74.5741666",
  "qr": "http://res.cloudinary.com/ddhncnedj/image/upload/v1698247743/cmlrgxdglmv8nkxcciti.png",
  "population": 0,
  "latitudes": null,
  "longitudes": null
},
{
  "_id": {
    "$oid": "6539279ee0265e4af914b863"
  },
  "name": "Sadar Nagaur Thana",
  "area": "Ahmedabad",
  "district": "Nagaur",
  "state": "Rajasthan",
  "pincode": "India",
  "latitude": "27.180978",
  "longitude": "73.726523",
  "qr": "http://res.cloudinary.com/ddhncnedj/image/upload/v1698247744/up4rybd77gxw1kcxvrzb.png",
  "population": 0,
  "latitudes": null,
  "longitudes": null
},
{
  "_id": {
    "$oid": "6539279ee0265e4af914b865"
  },
  "name": "Police Chawki Kalyanpur",
  "area": "Ahmedabad",
  "district": "Udaipur",
  "state": "Rajasthan",
  "pincode": "380002",
  "latitude": "23.9969207",
  "longitude": "73.7568527",
  "qr": "http://res.cloudinary.com/ddhncnedj/image/upload/v1698247747/t5y4d8v6hpaoij2patpo.png",
  "population": 0,
  "latitudes": null,
  "longitudes": null
},
{
  "_id": {
    "$oid": "6539279ee0265e4af914b866"
  },
  "name": "पुलिस थाना मडांर में भोळापन महसूस कर रहां हूँ",
  "area": "NH-24B",
  "district": "Sirohi",
  "state": "Rajasthan",
  "pincode": "Bachhrawan 229301",
  "latitude": "24.56123033",
  "longitude": "72.4006586",
  "qr": "http://res.cloudinary.com/ddhncnedj/image/upload/v1698247748/pzikxfo6tprvelb104ap.png",
  "population": 0,
  "latitudes": null,
  "longitudes": null
},
{
  "_id": {
    "$oid": "6539279ee0265e4af914b867"
  },
  "name": "तेरे यार का ठीकाना सेंट्रल जेल भरतपुर",
  "area": "Bhachau 370140",
  "district": "Jaipur",
  "state": "Rajasthan",
  "pincode": "Bhachau 370140",
  "latitude": "26.8260953",
  "longitude": "75.7954738",
  "qr": "http://res.cloudinary.com/ddhncnedj/image/upload/v1698247743/xcfu8jfkboczsbaeuumu.png",
  "population": 0,
  "latitudes": null,
  "longitudes": null
},
{
  "_id": {
    "$oid": "6539279ee0265e4af914b868"
  },
  "name": "Police Choki Meethari Marwar",
  "area": "Laskana",
  "district": "Nagaur",
  "state": "Rajasthan",
  "pincode": "395013",
  "latitude": "27.5756361",
  "longitude": "74.6854752",
  "qr": "http://res.cloudinary.com/ddhncnedj/image/upload/v1698247746/pi68c4czrqc5dqg0sp49.png",
  "population": 0,
  "latitudes": null,
  "longitudes": null
},
{
  "_id": {
    "$oid": "6539279ee0265e4af914b869"
  },
  "name": "कुंवर आंफ राजपुताना देचु श्रीjagdamba 05",
  "area": "LP Savani Road",
  "district": "Jaipur",
  "state": "Rajasthan",
  "pincode": "395009",
  "latitude": "26.8354273",
  "longitude": "75.6952165",
  "qr": "http://res.cloudinary.com/ddhncnedj/image/upload/v1698247749/d2ynkvxote4jxzxai0pu.png",
  "population": 0,
  "latitudes": null,
  "longitudes": null
},
{
  "_id": {
    "$oid": "6539279ee0265e4af914b86a"
  },
  "name": "Police Station-Bajju",
  "area": "Chotila road",
  "district": "Bikaner",
  "state": "Rajasthan",
  "pincode": "Thangadh",
  "latitude": "27.93224",
  "longitude": "72.51282",
  "qr": "http://res.cloudinary.com/ddhncnedj/image/upload/v1698247749/oxzbszqkub9xkpbt38qn.png",
  "population": 0,
  "latitudes": null,
  "longitudes": null
},
{
  "_id": {
    "$oid": "6539279ee0265e4af914b86b"
  },
  "name": "Police Station-Clock Tower",
  "area": "Anand",
  "district": "Udaipur",
  "state": "Rajasthan",
  "pincode": "",
  "latitude": "24.58179",
  "longitude": "73.68554",
  "qr": "http://res.cloudinary.com/ddhncnedj/image/upload/v1698247743/qemhoes0mouurxf6gbnh.png",
  "population": 0,
  "latitudes": null,
  "longitudes": null
},
{
  "_id": {
    "$oid": "6539279ee0265e4af914b86c"
  },
  "name": "छोरे पंचायत माधोगढ़ गुर्जर के",
  "area": "SH 30",
  "district": "Alwar",
  "state": "Rajasthan",
  "pincode": "Kushtagi 583277",
  "latitude": "27.55609",
  "longitude": "76.61235",
  "qr": "http://res.cloudinary.com/ddhncnedj/image/upload/v1698247742/apr4ezd4khoeaelmhxsd.png",
  "population": 0,
  "latitudes": null,
  "longitudes": null
},
{
  "_id": {
    "$oid": "6539279ee0265e4af914b86d"
  },
  "name": "पुलिस थाना फतहनगर",
  "area": "Jamnagar 361001",
  "district": "Udaipur",
  "state": "Rajasthan",
  "pincode": "Jamnagar 361001",
  "latitude": "24.8112098461",
  "longitude": "74.0810465813",
  "qr": "http://res.cloudinary.com/ddhncnedj/image/upload/v1698247747/g0p7zrnej0xuoaea0ehk.png",
  "population": 0,
  "latitudes": null,
  "longitudes": null
},
{
  "_id": {
    "$oid": "6539279ee0265e4af914b86e"
  },
  "name": "सुरेला जी की हवेली",
  "area": "Dr Jivraj Mehta Marg",
  "district": "Jaipur",
  "state": "Rajasthan",
  "pincode": "380051",
  "latitude": "26.8355279",
  "longitude": "75.7592288",
  "qr": "http://res.cloudinary.com/ddhncnedj/image/upload/v1698247744/fez5ccg7zvydrf6ay6lb.png",
  "population": 0,
  "latitudes": null,
  "longitudes": null
},
{
  "_id": {
    "$oid": "6539279ee0265e4af914b86f"
  },
  "name": "Takhatgarh Police Station",
  "area": "Galaxy Road",
  "district": "Pali",
  "state": "Rajasthan",
  "pincode": "382330",
  "latitude": "25.319143",
  "longitude": "73.000571",
  "qr": "http://res.cloudinary.com/ddhncnedj/image/upload/v1698247742/ew2gwslhfj6qal8vz0tf.png",
  "population": 0,
  "latitudes": null,
  "longitudes": null
},
{
  "_id": {
    "$oid": "6539279ee0265e4af914b870"
  },
  "name": "Police Station",
  "area": "Gaikwad Haveli Road",
  "district": "Bhilwara",
  "state": "Rajasthan",
  "pincode": "380001",
  "latitude": "25.732783",
  "longitude": "74.334844",
  "qr": "http://res.cloudinary.com/ddhncnedj/image/upload/v1698247749/l5ivxb5wtsnym1wjnnrw.png",
  "population": 0,
  "latitudes": null,
  "longitudes": null
},
{
  "_id": {
    "$oid": "6539279ee0265e4af914b871"
  },
  "name": "Langra Thana",
  "area": "SH-6",
  "district": "Karauli",
  "state": "Rajasthan",
  "pincode": "Valsad",
  "latitude": "26.40408",
  "longitude": "77.127431",
  "qr": "http://res.cloudinary.com/ddhncnedj/image/upload/v1698247749/uhdxmhwfplziwe6a8l5i.png",
  "population": 0,
  "latitudes": null,
  "longitudes": null
},
{
  "_id": {
    "$oid": "6539279ee0265e4af914b872"
  },
  "name": "Police Station , Chunawadh",
  "area": "Shirpur Chopda Highway",
  "district": "Ganganagar",
  "state": "Rajasthan",
  "pincode": "Shirpur 425421",
  "latitude": "29.8327998212",
  "longitude": "73.7292576861",
  "qr": "http://res.cloudinary.com/ddhncnedj/image/upload/v1698247743/o01loa7tnznii8vpygzl.png",
  "population": 0,
  "latitudes": null,
  "longitudes": null
},
{
  "_id": {
    "$oid": "6539279ee0265e4af914b874"
  },
  "name": "Police Station Masuda",
  "area": "Gandhidham 370201",
  "district": "Ajmer",
  "state": "Rajasthan",
  "pincode": "Gandhidham 370201",
  "latitude": "26.09059",
  "longitude": "74.52432",
  "qr": "http://res.cloudinary.com/ddhncnedj/image/upload/v1698247748/lk4xnepglk5jfqtshi7u.png",
  "population": 0,
  "latitudes": null,
  "longitudes": null
},
{
  "_id": {
    "$oid": "6539279ee0265e4af914b875"
  },
  "name": "Police Chowki Siyana",
  "area": "Vaghodia INA 391510",
  "district": "Jalor",
  "state": "Rajasthan",
  "pincode": "Vaghodia INA 391510",
  "latitude": "25.13677",
  "longitude": "72.67675",
  "qr": "http://res.cloudinary.com/ddhncnedj/image/upload/v1698247743/hzpfuidneuyaslcmub8w.png",
  "population": 0,
  "latitudes": null,
  "longitudes": null
},
{
  "_id": {
    "$oid": "6539279ee0265e4af914b876"
  },
  "name": "Police Station Phulera",
  "area": "Vallabh Vidhyanagar 388121",
  "district": "Jaipur",
  "state": "Rajasthan",
  "pincode": "Vallabh Vidhyanagar 388121",
  "latitude": "26.87398",
  "longitude": "75.24108",
  "qr": "http://res.cloudinary.com/ddhncnedj/image/upload/v1698247746/c9jkr9a886td6b6x6jm4.png",
  "population": 0,
  "latitudes": null,
  "longitudes": null
},
{
  "_id": {
    "$oid": "6539279ee0265e4af914b877"
  },
  "name": "Police Chowki Pachala",
  "area": "SH-46",
  "district": "Tonk",
  "state": "Rajasthan",
  "pincode": "Gandhidham 370205",
  "latitude": "25.9571",
  "longitude": "76.2215",
  "qr": "http://res.cloudinary.com/ddhncnedj/image/upload/v1698247742/tfaiajlvc2vhxw8fbptx.png",
  "population": 0,
  "latitudes": null,
  "longitudes": null
},
{
  "_id": {
    "$oid": "6539279ee0265e4af914b878"
  },
  "name": "Vishwakarma Police Station",
  "area": "Godhra City",
  "district": "Jaipur",
  "state": "Rajasthan",
  "pincode": "",
  "latitude": "26.978251",
  "longitude": "75.774266",
  "qr": "http://res.cloudinary.com/ddhncnedj/image/upload/v1698247746/imfaguewvkwhcnhpwbeg.png",
  "population": 0,
  "latitudes": null,
  "longitudes": null
},
{
  "_id": {
    "$oid": "6539279ee0265e4af914b879"
  },
  "name": "Dooni Police Station",
  "area": "Lal Darwaja Road",
  "district": "Tonk",
  "state": "Rajasthan",
  "pincode": "",
  "latitude": "25.8708",
  "longitude": "75.6028",
  "qr": "http://res.cloudinary.com/ddhncnedj/image/upload/v1698247743/lzqxcftbjhimjgxtpeex.png",
  "population": 0,
  "latitudes": null,
  "longitudes": null
},
{
  "_id": {
    "$oid": "6539279ee0265e4af914b87a"
  },
  "name": "Kalwar Thana",
  "area": "Varacha Road",
  "district": "Jaipur",
  "state": "Rajasthan",
  "pincode": "",
  "latitude": "26.98092",
  "longitude": "75.6054033333",
  "qr": "http://res.cloudinary.com/ddhncnedj/image/upload/v1698247742/ai060kwl71pw4s9ab59j.png",
  "population": 0,
  "latitudes": null,
  "longitudes": null
},
{
  "_id": {
    "$oid": "6539279ee0265e4af914b87b"
  },
  "name": "Police Station-Parbatsar",
  "area": "132 Feet Road",
  "district": "Nagaur",
  "state": "Rajasthan",
  "pincode": "380051",
  "latitude": "26.95325",
  "longitude": "74.76714",
  "qr": "http://res.cloudinary.com/ddhncnedj/image/upload/v1698247752/e0bw8pzg6w7c9harekuv.png",
  "population": 0,
  "latitudes": null,
  "longitudes": null
},
{
  "_id": {
    "$oid": "6539279ee0265e4af914b87c"
  },
  "name": "Mahila Police Thana West Banipark Jaipur",
  "area": "Jail Road",
  "district": "Jaipur",
  "state": "Rajasthan",
  "pincode": "",
  "latitude": "26.9371",
  "longitude": "75.785339",
  "qr": "http://res.cloudinary.com/ddhncnedj/image/upload/v1698247749/y763jlulrjt7wed36jfa.png",
  "population": 0,
  "latitudes": null,
  "longitudes": null
},
{
  "_id": {
    "$oid": "6539279ee0265e4af914b87d"
  },
  "name": "Police Station-Jai Narayan Vyas Colony",
  "area": "Bus Station Road",
  "district": "Bikaner",
  "state": "Rajasthan",
  "pincode": "",
  "latitude": "28.0117",
  "longitude": "73.35516",
  "qr": "http://res.cloudinary.com/ddhncnedj/image/upload/v1698247751/eykmofptvrbuni3f1tho.png",
  "population": 0,
  "latitudes": null,
  "longitudes": null
},
{
  "_id": {
    "$oid": "6539279ee0265e4af914b87e"
  },
  "name": "Police Station-Banetha",
  "area": "SVP Road",
  "district": "Tonk",
  "state": "Rajasthan",
  "pincode": "360575",
  "latitude": "26.0723473",
  "longitude": "75.9914374",
  "qr": "http://res.cloudinary.com/ddhncnedj/image/upload/v1698247742/rfzk6hnwosvgpmcvhgxe.png",
  "population": 0,
  "latitudes": null,
  "longitudes": null
},
{
  "_id": {
    "$oid": "6539279ee0265e4af914b87f"
  },
  "name": "Bundi Police Control Room",
  "area": "SH-17",
  "district": "Bundi",
  "state": "Rajasthan",
  "pincode": "382110",
  "latitude": "25.440805",
  "longitude": "75.639273",
  "qr": "http://res.cloudinary.com/ddhncnedj/image/upload/v1698247743/tsjc69meombkkflg8sv5.png",
  "population": 0,
  "latitudes": null,
  "longitudes": null
},
{
  "_id": {
    "$oid": "6539279ee0265e4af914b880"
  },
  "name": "Police Up Adhyaksh Karylaya",
  "area": "Dhoraji Road",
  "district": "Bundi",
  "state": "Rajasthan",
  "pincode": "",
  "latitude": "25.445133",
  "longitude": "75.6382582",
  "qr": "http://res.cloudinary.com/ddhncnedj/image/upload/v1698247744/a4bjvcjyk3sv54xtbluk.png",
  "population": 0,
  "latitudes": null,
  "longitudes": null
},
{
  "_id": {
    "$oid": "6539279ee0265e4af914b881"
  },
  "name": "Police Chowki Air Force",
  "area": "SH-130",
  "district": "Jodhpur",
  "state": "Rajasthan",
  "pincode": "",
  "latitude": "26.265541",
  "longitude": "73.033646",
  "qr": "http://res.cloudinary.com/ddhncnedj/image/upload/v1698247746/e2heoi19ppfrwrzkcxve.png",
  "population": 0,
  "latitudes": null,
  "longitudes": null
},
{
  "_id": {
    "$oid": "6539279ee0265e4af914b882"
  },
  "name": "Niwai Police Station",
  "area": "Sh130",
  "district": "Tonk",
  "state": "Rajasthan",
  "pincode": "",
  "latitude": "26.364086",
  "longitude": "75.927097",
  "qr": "http://res.cloudinary.com/ddhncnedj/image/upload/v1698247742/eltop2uurgidymf0plbl.png",
  "population": 0,
  "latitudes": null,
  "longitudes": null
},
{
  "_id": {
    "$oid": "6539279ee0265e4af914b883"
  },
  "name": "Kelwa Police Station",
  "area": "Main Road",
  "district": "Rajsamand",
  "state": "Rajasthan",
  "pincode": "392001",
  "latitude": "25.146082",
  "longitude": "73.846375",
  "qr": "http://res.cloudinary.com/ddhncnedj/image/upload/v1698247750/g3hciwncijqgxdfwxwp1.png",
  "population": 0,
  "latitudes": null,
  "longitudes": null
},
{
  "_id": {
    "$oid": "6539279ee0265e4af914b884"
  },
  "name": "Bandanwara Police Chowki",
  "area": "Station Road",
  "district": "Ajmer",
  "state": "Rajasthan",
  "pincode": "384001",
  "latitude": "26.12361",
  "longitude": "74.697062",
  "qr": "http://res.cloudinary.com/ddhncnedj/image/upload/v1698247750/qxyghma7xb8xwc3mltok.png",
  "population": 0,
  "latitudes": null,
  "longitudes": null
},
{
  "_id": {
    "$oid": "6539279ee0265e4af914b885"
  },
  "name": "Police Thana-Sadar Gangapur City",
  "area": "Ranjit Nagar",
  "district": "Sawai Madhopur",
  "state": "Rajasthan",
  "pincode": "",
  "latitude": "26.47254",
  "longitude": "76.71197",
  "qr": "http://res.cloudinary.com/ddhncnedj/image/upload/v1698247752/ktg2t66kgdjw7nnpqtdy.png",
  "population": 0,
  "latitudes": null,
  "longitudes": null
},
{
  "_id": {
    "$oid": "6539279ee0265e4af914b886"
  },
  "name": "Police Station-Shakargarh",
  "area": "Station Road",
  "district": "Bhilwara",
  "state": "Rajasthan",
  "pincode": "391110",
  "latitude": "25.45709",
  "longitude": "75.31917",
  "qr": "http://res.cloudinary.com/ddhncnedj/image/upload/v1698247749/syywvnwh4fghdihausok.png",
  "population": 0,
  "latitudes": null,
  "longitudes": null
},
{
  "_id": {
    "$oid": "6539279ee0265e4af914b887"
  },
  "name": "Police Anweshan Bhawan",
  "area": "Government Hospital Road",
  "district": "Udaipur",
  "state": "Rajasthan",
  "pincode": "391110",
  "latitude": "24.622256",
  "longitude": "73.659194",
  "qr": "http://res.cloudinary.com/ddhncnedj/image/upload/v1698247744/ze3u5wheen93n2vdkit8.png",
  "population": 0,
  "latitudes": null,
  "longitudes": null
},
{
  "_id": {
    "$oid": "6539279ee0265e4af914b888"
  },
  "name": "Phulera Police Station",
  "area": "Narol Naroda Road",
  "district": "Jaipur",
  "state": "Rajasthan",
  "pincode": "",
  "latitude": "26.874059",
  "longitude": "75.24131",
  "qr": "http://res.cloudinary.com/ddhncnedj/image/upload/v1698247749/u3gpwfptp9liwaqcvrka.png",
  "population": 0,
  "latitudes": null,
  "longitudes": null
},
{
  "_id": {
    "$oid": "6539279ee0265e4af914b889"
  },
  "name": "Police Station",
  "area": "Nh8b",
  "district": "Bhilwara",
  "state": "Rajasthan",
  "pincode": "",
  "latitude": "25.732783",
  "longitude": "74.334844",
  "qr": "http://res.cloudinary.com/ddhncnedj/image/upload/v1698247748/r4kknajnxx6xw1zwffvw.png",
  "population": 0,
  "latitudes": null,
  "longitudes": null
},
{
  "_id": {
    "$oid": "6539279ee0265e4af914b88a"
  },
  "name": "Police Station-Hiran Magri",
  "area": "Swami Dayanand Saraswati Road",
  "district": "Udaipur",
  "state": "Rajasthan",
  "pincode": "",
  "latitude": "24.56021",
  "longitude": "73.71726",
  "qr": "http://res.cloudinary.com/ddhncnedj/image/upload/v1698247750/n40neddeudocxg5dylnj.png",
  "population": 0,
  "latitudes": null,
  "longitudes": null
},
{
  "_id": {
    "$oid": "6539279ee0265e4af914b88b"
  },
  "name": "Police Chowki Bajrang Nagar",
  "area": "Station Road",
  "district": "Kota",
  "state": "Rajasthan",
  "pincode": "",
  "latitude": "25.179413",
  "longitude": "75.863533",
  "qr": "http://res.cloudinary.com/ddhncnedj/image/upload/v1698247749/i5dnwd912rtakmlt9faz.png",
  "population": 0,
  "latitudes": null,
  "longitudes": null
},
{
  "_id": {
    "$oid": "6539279ee0265e4af914b88c"
  },
  "name": "Police Station-Mandawari",
  "area": "Bhalka Road",
  "district": "Dausa",
  "state": "Rajasthan",
  "pincode": "362268",
  "latitude": "26.52228",
  "longitude": "76.37815",
  "qr": "http://res.cloudinary.com/ddhncnedj/image/upload/v1698247744/gfdf6dj3wnuzqg81jfwn.png",
  "population": 0,
  "latitudes": null,
  "longitudes": null
},
{
  "_id": {
    "$oid": "6539279ee0265e4af914b88d"
  },
  "name": "Kotegate Thana Bikaner",
  "area": "Sh35",
  "district": "Bikaner",
  "state": "Rajasthan",
  "pincode": "",
  "latitude": "28.01409377",
  "longitude": "73.314797705",
  "qr": "http://res.cloudinary.com/ddhncnedj/image/upload/v1698247749/g8xfefvjyxo0xkwfkcfp.png",
  "population": 0,
  "latitudes": null,
  "longitudes": null
},
{
  "_id": {
    "$oid": "6539279ee0265e4af914b88e"
  },
  "name": "Traffic Police Station",
  "area": "Raigadh",
  "district": "Hanumangarh",
  "state": "Rajasthan",
  "pincode": "",
  "latitude": "29.581815",
  "longitude": "74.323363",
  "qr": "http://res.cloudinary.com/ddhncnedj/image/upload/v1698247750/m53tqvmpr3rsqjqqwna5.png",
  "population": 0,
  "latitudes": null,
  "longitudes": null
},
{
  "_id": {
    "$oid": "6539279ee0265e4af914b88f"
  },
  "name": "Police Station-Sewar",
  "area": "Nh8a Kutch Road",
  "district": "Bharatpur",
  "state": "Rajasthan",
  "pincode": "",
  "latitude": "27.19511",
  "longitude": "77.45294",
  "qr": "http://res.cloudinary.com/ddhncnedj/image/upload/v1698247742/fuehovgyxvvndk74jljk.png",
  "population": 0,
  "latitudes": null,
  "longitudes": null
},
{
  "_id": {
    "$oid": "6539279ee0265e4af914b890"
  },
  "name": "Mahila Police Thana Bundi",
  "area": "Bodeli Road",
  "district": "Bundi",
  "state": "Rajasthan",
  "pincode": "",
  "latitude": "25.4352817535",
  "longitude": "75.651763916",
  "qr": "http://res.cloudinary.com/ddhncnedj/image/upload/v1698247748/zhet9kgxu7adsy9zmmtj.png",
  "population": 0,
  "latitudes": null,
  "longitudes": null
},
{
  "_id": {
    "$oid": "6539279ee0265e4af914b891"
  },
  "name": "Police Thana Sadar-Hanumangarh",
  "area": "M G Road",
  "district": "Hanumangarh",
  "state": "Rajasthan",
  "pincode": "",
  "latitude": "29.62222",
  "longitude": "74.2904",
  "qr": "http://res.cloudinary.com/ddhncnedj/image/upload/v1698247750/ffwbdv8qtlllf5xgnq9s.png",
  "population": 0,
  "latitudes": null,
  "longitudes": null
},
{
  "_id": {
    "$oid": "6539279ee0265e4af914b892"
  },
  "name": "Alwar Gate Police Station",
  "area": "SH-94",
  "district": "Ajmer",
  "state": "Rajasthan",
  "pincode": "",
  "latitude": "26.446122",
  "longitude": "74.647802",
  "qr": "http://res.cloudinary.com/ddhncnedj/image/upload/v1698247749/zsuvpj27gjjlwit7yyl8.png",
  "population": 0,
  "latitudes": null,
  "longitudes": null
},
{
  "_id": {
    "$oid": "6539279ee0265e4af914b893"
  },
  "name": "Police Station-Baswa",
  "area": "Swami Vivekanand Road",
  "district": "Dausa",
  "state": "Rajasthan",
  "pincode": "",
  "latitude": "27.142",
  "longitude": "76.56781",
  "qr": "http://res.cloudinary.com/ddhncnedj/image/upload/v1698247742/r71bpqi1hlfx9akfr5ox.png",
  "population": 0,
  "latitudes": null,
  "longitudes": null
},
{
  "_id": {
    "$oid": "6539279ee0265e4af914b894"
  },
  "name": "Traffic Police, Udaipur",
  "area": "Aashapura Road",
  "district": "Udaipur",
  "state": "Rajasthan",
  "pincode": "361001",
  "latitude": "24.586690696",
  "longitude": "73.697463338",
  "qr": "http://res.cloudinary.com/ddhncnedj/image/upload/v1698247743/opddchg95g3gj6m2y58s.png",
  "population": 0,
  "latitudes": null,
  "longitudes": null
},
{
  "_id": {
    "$oid": "6539279ee0265e4af914b895"
  },
  "name": "Police Station-Samdari",
  "area": "Ahmedabad Rajkot Highway",
  "district": "Barmer",
  "state": "Rajasthan",
  "pincode": "",
  "latitude": "25.8181281862",
  "longitude": "72.5771979043",
  "qr": "http://res.cloudinary.com/ddhncnedj/image/upload/v1698247750/o6csujs2tikic87kesu6.png",
  "population": 0,
  "latitudes": null,
  "longitudes": null
},
{
  "_id": {
    "$oid": "6539279ee0265e4af914b896"
  },
  "name": "Mahila Police Thana",
  "area": "Sh6 Surat Road",
  "district": "Kota",
  "state": "Rajasthan",
  "pincode": "",
  "latitude": "25.175515",
  "longitude": "75.841248",
  "qr": "http://res.cloudinary.com/ddhncnedj/image/upload/v1698247747/nn22vtmqq6esm7dotynr.png",
  "population": 0,
  "latitudes": null,
  "longitudes": null
},
{
  "_id": {
    "$oid": "6539279ee0265e4af914b897"
  },
  "name": "Atru Acjn Cort",
  "area": "Sayan Road",
  "district": "Baran",
  "state": "Rajasthan",
  "pincode": "394107",
  "latitude": "24.8636839",
  "longitude": "76.6773523",
  "qr": "http://res.cloudinary.com/ddhncnedj/image/upload/v1698247751/k6zccf92jdg1v8zxqpwl.png",
  "population": 0,
  "latitudes": null,
  "longitudes": null
},
{
  "_id": {
    "$oid": "6539279ee0265e4af914b898"
  },
  "name": "Gunsi Police Chowki",
  "area": "Amroli Road",
  "district": "Tonk",
  "state": "Rajasthan",
  "pincode": "394107",
  "latitude": "26.474756",
  "longitude": "75.942974",
  "qr": "http://res.cloudinary.com/ddhncnedj/image/upload/v1698247748/knzuntdjdtv5iwklnoq2.png",
  "population": 0,
  "latitudes": null,
  "longitudes": null
},
{
  "_id": {
    "$oid": "6539279ee0265e4af914b899"
  },
  "name": "Thana Mandana Kota",
  "area": "Amroli Sayan Road",
  "district": "Kota",
  "state": "Rajasthan",
  "pincode": "",
  "latitude": "24.9505224",
  "longitude": "75.9412089",
  "qr": "http://res.cloudinary.com/ddhncnedj/image/upload/v1698247742/h4ofspjtgqezkwncfpha.png",
  "population": 0,
  "latitudes": null,
  "longitudes": null
},
{
  "_id": {
    "$oid": "6539279ee0265e4af914b89a"
  },
  "name": "Pragpura Police Station",
  "area": "Jhalod Road",
  "district": "Jaipur",
  "state": "Rajasthan",
  "pincode": "",
  "latitude": "27.6174137",
  "longitude": "76.1042692",
  "qr": "http://res.cloudinary.com/ddhncnedj/image/upload/v1698247742/l7qjshpblfgpcwbcem1n.png",
  "population": 0,
  "latitudes": null,
  "longitudes": null
},
{
  "_id": {
    "$oid": "6539279ee0265e4af914b89b"
  },
  "name": "Police Station-Moti Doongri",
  "area": "Near Collector Road",
  "district": "Jaipur",
  "state": "Rajasthan",
  "pincode": "",
  "latitude": "26.89918",
  "longitude": "75.82316",
  "qr": "http://res.cloudinary.com/ddhncnedj/image/upload/v1698247744/tiw6p99nnfdtwvflb6qb.png",
  "population": 0,
  "latitudes": null,
  "longitudes": null
},
{
  "_id": {
    "$oid": "6539279ee0265e4af914b89c"
  },
  "name": "Police Station Neb Alwar",
  "area": "Station Road",
  "district": "Alwar",
  "state": "Rajasthan",
  "pincode": "",
  "latitude": "27.5668206611",
  "longitude": "76.631950554",
  "qr": "http://res.cloudinary.com/ddhncnedj/image/upload/v1698247749/ccyulqydrjn9jjoiae35.png",
  "population": 0,
  "latitudes": null,
  "longitudes": null
},
{
  "_id": {
    "$oid": "6539279ee0265e4af914b89d"
  },
  "name": "पुलिस थाना जसरासर बीकानेर",
  "area": "Adipur Road",
  "district": "Bikaner",
  "state": "Rajasthan",
  "pincode": "",
  "latitude": "27.7133106",
  "longitude": "73.8104994",
  "qr": "http://res.cloudinary.com/ddhncnedj/image/upload/v1698247747/ao2beyixqlizig2rxog3.png",
  "population": 0,
  "latitudes": null,
  "longitudes": null
},
{
  "_id": {
    "$oid": "6539279ee0265e4af914b89e"
  },
  "name": "Lawan Thana",
  "area": "SH-42",
  "district": "Dausa",
  "state": "Rajasthan",
  "pincode": "370030",
  "latitude": "26.765229",
  "longitude": "76.212698",
  "qr": "http://res.cloudinary.com/ddhncnedj/image/upload/v1698247745/e2pq69sbdougtcaihelq.png",
  "population": 0,
  "latitudes": null,
  "longitudes": null
},
{
  "_id": {
    "$oid": "6539279ee0265e4af914b89f"
  },
  "name": "Jalupura Police Station",
  "area": "NH751",
  "district": "Jaipur",
  "state": "Rajasthan",
  "pincode": "382225",
  "latitude": "26.918611",
  "longitude": "75.80432",
  "qr": "http://res.cloudinary.com/ddhncnedj/image/upload/v1698247748/s0xx096rdl1oaqglq0zu.png",
  "population": 0,
  "latitudes": null,
  "longitudes": null
},
{
  "_id": {
    "$oid": "6539279ee0265e4af914b8a0"
  },
  "name": "Phagi Police Station",
  "area": "SH-5",
  "district": "Jaipur",
  "state": "Rajasthan",
  "pincode": "",
  "latitude": "26.578845",
  "longitude": "75.562783",
  "qr": "http://res.cloudinary.com/ddhncnedj/image/upload/v1698247748/zeofzs6w6vse3sxobzum.png",
  "population": 0,
  "latitudes": null,
  "longitudes": null
},
{
  "_id": {
    "$oid": "6539279ee0265e4af914b8a1"
  },
  "name": "Police Station-Sarupganj",
  "area": "Nagar Seva Sadan",
  "district": "Sirohi",
  "state": "Rajasthan",
  "pincode": "",
  "latitude": "24.64639",
  "longitude": "72.92189",
  "qr": "http://res.cloudinary.com/ddhncnedj/image/upload/v1698247751/act4mlrampveq6gww2q9.png",
  "population": 0,
  "latitudes": null,
  "longitudes": null
},
{
  "_id": {
    "$oid": "6539279ee0265e4af914b8a2"
  },
  "name": "Keshoraipatan Police Station",
  "area": "Near Hospital Road",
  "district": "Bundi",
  "state": "Rajasthan",
  "pincode": "370020",
  "latitude": "25.30783",
  "longitude": "75.93281",
  "qr": "http://res.cloudinary.com/ddhncnedj/image/upload/v1698247744/bstishh0smm8hhiebrbi.png",
  "population": 0,
  "latitudes": null,
  "longitudes": null
},
{
  "_id": {
    "$oid": "6539279ee0265e4af914b8a3"
  },
  "name": "Police Station-Uchain",
  "area": "Kapadvanj Market",
  "district": "Bharatpur",
  "state": "Rajasthan",
  "pincode": "",
  "latitude": "27.10572",
  "longitude": "77.41345",
  "qr": "http://res.cloudinary.com/ddhncnedj/image/upload/v1698247744/tjw4x7ql6mufckeylshd.png",
  "population": 0,
  "latitudes": null,
  "longitudes": null
},
{
  "_id": {
    "$oid": "6539279ee0265e4af914b8a4"
  },
  "name": "Police Station-Devikot",
  "area": "Lilia Mahal",
  "district": "Jaisalmer",
  "state": "Rajasthan",
  "pincode": "",
  "latitude": "26.70082",
  "longitude": "71.19656",
  "qr": "http://res.cloudinary.com/ddhncnedj/image/upload/v1698247751/vusnurmkg5bk4hzjesjf.png",
  "population": 0,
  "latitudes": null,
  "longitudes": null
},
{
  "_id": {
    "$oid": "6539279ee0265e4af914b8a5"
  },
  "name": "Police Station Borkheda",
  "area": "Station Road",
  "district": "Kota",
  "state": "Rajasthan",
  "pincode": "362001",
  "latitude": "25.1813492817",
  "longitude": "75.8919440032",
  "qr": "http://res.cloudinary.com/ddhncnedj/image/upload/v1698247748/xem6bw1cayzbruyavkgu.png",
  "population": 0,
  "latitudes": null,
  "longitudes": null
},
{
  "_id": {
    "$oid": "6539279ee0265e4af914b8a6"
  },
  "name": "Forest Chowki",
  "area": "SH-34",
  "district": "Jaipur",
  "state": "Rajasthan",
  "pincode": "",
  "latitude": "26.948803",
  "longitude": "75.856109",
  "qr": "http://res.cloudinary.com/ddhncnedj/image/upload/v1698247746/fjbywnv6tdbwjuxtzgse.png",
  "population": 0,
  "latitudes": null,
  "longitudes": null
},
{
  "_id": {
    "$oid": "6539279ee0265e4af914b8a7"
  },
  "name": "Jai Narayan Vyas Colony Police Station..",
  "area": "Thaltej Shilaj Road",
  "district": "Bikaner",
  "state": "Rajasthan",
  "pincode": "380059",
  "latitude": "28.0104578824",
  "longitude": "73.3521576471",
  "qr": "http://res.cloudinary.com/ddhncnedj/image/upload/v1698247750/ojv4kimle9kxz9p4htrj.png",
  "population": 0,
  "latitudes": null,
  "longitudes": null
},
{
  "_id": {
    "$oid": "6539279ee0265e4af914b8a8"
  },
  "name": "Police Station-Marwar Junction",
  "area": "Drive In Road",
  "district": "Pali",
  "state": "Rajasthan",
  "pincode": "380052",
  "latitude": "25.72465",
  "longitude": "73.61009",
  "qr": "http://res.cloudinary.com/ddhncnedj/image/upload/v1698247749/o3840hph8isksxmb2ghv.png",
  "population": 0,
  "latitudes": null,
  "longitudes": null
},
{
  "_id": {
    "$oid": "6539279ee0265e4af914b8a9"
  },
  "name": "Nim Ka Thana Police Station",
  "area": "Veraval 362265",
  "district": "Sikar",
  "state": "Rajasthan",
  "pincode": "",
  "latitude": "27.741374",
  "longitude": "75.77804",
  "qr": "http://res.cloudinary.com/ddhncnedj/image/upload/v1698247752/t8etwjyn56cc3arjqigb.png",
  "population": 0,
  "latitudes": null,
  "longitudes": null
},
{
  "_id": {
    "$oid": "6539279ee0265e4af914b8aa"
  },
  "name": "Sanganer",
  "area": "Ahmedabad",
  "district": "Jaipur",
  "state": "Rajasthan",
  "pincode": "India",
  "latitude": "26.9238206",
  "longitude": "75.8031127",
  "qr": "http://res.cloudinary.com/ddhncnedj/image/upload/v1698247750/nppsqvasi7ffd94w8f2w.png",
  "population": 0,
  "latitudes": null,
  "longitudes": null
},
{
  "_id": {
    "$oid": "6539279ee0265e4af914b8ab"
  },
  "name": "Raipur Traffic Police",
  "area": "Natwar Road",
  "district": "Jaipur",
  "state": "Rajasthan",
  "pincode": "Upleta 360490",
  "latitude": "26.889071846",
  "longitude": "75.7517453842",
  "qr": "http://res.cloudinary.com/ddhncnedj/image/upload/v1698247743/lfoaryhy8stbuiyf6quz.png",
  "population": 0,
  "latitudes": null,
  "longitudes": null
},
{
  "_id": {
    "$oid": "6539279ee0265e4af914b8ac"
  },
  "name": "Shahapura Police Check Post",
  "area": "NH-59",
  "district": "Jaipur",
  "state": "Rajasthan",
  "pincode": "Balasinor 388255",
  "latitude": "27.379024",
  "longitude": "75.961162",
  "qr": "http://res.cloudinary.com/ddhncnedj/image/upload/v1698247748/kfj3aqvjtbdwunuwscy1.png",
  "population": 0,
  "latitudes": null,
  "longitudes": null
},
{
  "_id": {
    "$oid": "6539279ee0265e4af914b8ad"
  },
  "name": "Police Chowki Geejgarh",
  "area": "Near Last Bus Stop",
  "district": "Dausa",
  "state": "Rajasthan",
  "pincode": "380016",
  "latitude": "26.8855381012",
  "longitude": "76.6393127441",
  "qr": "http://res.cloudinary.com/ddhncnedj/image/upload/v1698247744/i9ossjhpzobirc8atcai.png",
  "population": 0,
  "latitudes": null,
  "longitudes": null
},
{
  "_id": {
    "$oid": "6539279ee0265e4af914b8ae"
  },
  "name": "Ramganj Police Station",
  "area": "Ahmedabad",
  "district": "Ajmer",
  "state": "Rajasthan",
  "pincode": "India",
  "latitude": "26.423523",
  "longitude": "74.630321",
  "qr": "http://res.cloudinary.com/ddhncnedj/image/upload/v1698247743/wisgfudvhujxc336pbul.png",
  "population": 0,
  "latitudes": null,
  "longitudes": null
},
{
  "_id": {
    "$oid": "6539279ee0265e4af914b8af"
  },
  "name": "Police Door Sanchar Line and Training School",
  "area": "Dharampur",
  "district": "Jaipur",
  "state": "Rajasthan",
  "pincode": "",
  "latitude": "26.912008",
  "longitude": "75.834967",
  "qr": "http://res.cloudinary.com/ddhncnedj/image/upload/v1698247748/xc4hjn8zkqevyhdm5b6y.png",
  "population": 0,
  "latitudes": null,
  "longitudes": null
},
{
  "_id": {
    "$oid": "6539279ee0265e4af914b8b0"
  },
  "name": "Police Station-Bhinmal",
  "area": "SH-67",
  "district": "Jalor",
  "state": "Rajasthan",
  "pincode": "396065",
  "latitude": "25.06498",
  "longitude": "72.11099",
  "qr": "http://res.cloudinary.com/ddhncnedj/image/upload/v1698247742/gzp5m3etcrkmx0mdxi27.png",
  "population": 0,
  "latitudes": null,
  "longitudes": null
},
{
  "_id": {
    "$oid": "6539279ee0265e4af914b8b1"
  },
  "name": "Police Station Hindaun City",
  "area": "SH-183",
  "district": "Karauli",
  "state": "Rajasthan",
  "pincode": "396126",
  "latitude": "26.70811",
  "longitude": "76.71843",
  "qr": "http://res.cloudinary.com/ddhncnedj/image/upload/v1698247749/zaimbwlawvd6bf73hyos.png",
  "population": 0,
  "latitudes": null,
  "longitudes": null
},
{
  "_id": {
    "$oid": "6539279ee0265e4af914b8b2"
  },
  "name": "Police Thana-Magrol",
  "area": "Ahmedabad",
  "district": "Baran",
  "state": "Rajasthan",
  "pincode": "380055",
  "latitude": "25.3236066",
  "longitude": "76.5130107",
  "qr": "http://res.cloudinary.com/ddhncnedj/image/upload/v1698247742/rgpvkaeck69p6b2uv2lc.png",
  "population": 0,
  "latitudes": null,
  "longitudes": null
},
{
  "_id": {
    "$oid": "6539279ee0265e4af914b8b3"
  },
  "name": "Manak Chowk Police Thana",
  "area": "Kosad Singh Road",
  "district": "Jaipur",
  "state": "Rajasthan",
  "pincode": "395008",
  "latitude": "26.927515",
  "longitude": "75.828299",
  "qr": "http://res.cloudinary.com/ddhncnedj/image/upload/v1698247748/ogm7jo6nchrisuaawid3.png",
  "population": 0,
  "latitudes": null,
  "longitudes": null
},
{
  "_id": {
    "$oid": "6539279ee0265e4af914b8b4"
  },
  "name": "Police Station",
  "area": "Udhana-Magdalla Road",
  "district": "Bhilwara",
  "state": "Rajasthan",
  "pincode": "395002",
  "latitude": "25.732783",
  "longitude": "74.334844",
  "qr": "http://res.cloudinary.com/ddhncnedj/image/upload/v1698247750/uglcpk9zb8bbmsocx5wo.png",
  "population": 0,
  "latitudes": null,
  "longitudes": null
},
{
  "_id": {
    "$oid": "6539279ee0265e4af914b8b5"
  },
  "name": "City Kotwali",
  "area": "Valod",
  "district": "Bikaner",
  "state": "Rajasthan",
  "pincode": "394640",
  "latitude": "28.01281607",
  "longitude": "73.3070393801",
  "qr": "http://res.cloudinary.com/ddhncnedj/image/upload/v1698247742/qebtaxsybpteraemrcvz.png",
  "population": 0,
  "latitudes": null,
  "longitudes": null
},
{
  "_id": {
    "$oid": "6539279ee0265e4af914b8b6"
  },
  "name": "Thana Kotwali Rampura",
  "area": "Surat",
  "district": "Kota",
  "state": "Rajasthan",
  "pincode": "",
  "latitude": "25.186588",
  "longitude": "75.841467",
  "qr": "http://res.cloudinary.com/ddhncnedj/image/upload/v1698247750/hf0elib4gdirwmsdbnld.png",
  "population": 0,
  "latitudes": null,
  "longitudes": null
},
{
  "_id": {
    "$oid": "6539279ee0265e4af914b8b8"
  },
  "name": "Police Chowki",
  "area": "Ghod Dod Road",
  "district": "Churu",
  "state": "Rajasthan",
  "pincode": "395001",
  "latitude": "27.834298",
  "longitude": "74.332289",
  "qr": "http://res.cloudinary.com/ddhncnedj/image/upload/v1698247743/uffcyobgcgsmp6w6sqdj.png",
  "population": 0,
  "latitudes": null,
  "longitudes": null
},
{
  "_id": {
    "$oid": "6539279ee0265e4af914b8b9"
  },
  "name": "Office Transport Police-Jalore",
  "area": "Police Line",
  "district": "Jalor",
  "state": "Rajasthan",
  "pincode": "391770",
  "latitude": "25.3251308",
  "longitude": "72.6336408",
  "qr": "http://res.cloudinary.com/ddhncnedj/image/upload/v1698247742/jcasal3qdukyki8fdonc.png",
  "population": 0,
  "latitudes": null,
  "longitudes": null
},
{
  "_id": {
    "$oid": "6539279ee0265e4af914b8ba"
  },
  "name": "Police Station-Rupwas",
  "area": "Gandhidham",
  "district": "Bharatpur",
  "state": "Rajasthan",
  "pincode": "Gandhidham",
  "latitude": "26.9920275",
  "longitude": "77.5983681",
  "qr": "http://res.cloudinary.com/ddhncnedj/image/upload/v1698247747/ut3hkv1m01oimnpl9rgv.png",
  "population": 0,
  "latitudes": null,
  "longitudes": null
},
{
  "_id": {
    "$oid": "6539279ee0265e4af914b8bb"
  },
  "name": "Police Station",
  "area": "Tilak Marg",
  "district": "Bhilwara",
  "state": "Rajasthan",
  "pincode": "390005",
  "latitude": "25.732783",
  "longitude": "74.334844",
  "qr": "http://res.cloudinary.com/ddhncnedj/image/upload/v1698247746/tmcavsaxj6gfemdzp94b.png",
  "population": 0,
  "latitudes": null,
  "longitudes": null
},
{
  "_id": {
    "$oid": "6539279ee0265e4af914b8bc"
  },
  "name": "Hasanpura Police Station",
  "area": "SH-26",
  "district": "Jaipur",
  "state": "Rajasthan",
  "pincode": "Jamnagar 361002",
  "latitude": "26.916545",
  "longitude": "75.779446",
  "qr": "http://res.cloudinary.com/ddhncnedj/image/upload/v1698247742/fjp2b2hh2yldcs9bz11s.png",
  "population": 0,
  "latitudes": null,
  "longitudes": null
},
{
  "_id": {
    "$oid": "6539279ee0265e4af914b8bd"
  },
  "name": "Police Station Sadar Jaipur Pachim",
  "area": "Surat",
  "district": "Jaipur",
  "state": "Rajasthan",
  "pincode": "394270",
  "latitude": "26.92061",
  "longitude": "75.789814",
  "qr": "http://res.cloudinary.com/ddhncnedj/image/upload/v1698247742/flq0ch5mmk5j72o9h5mb.png",
  "population": 0,
  "latitudes": null,
  "longitudes": null
},
{
  "_id": {
    "$oid": "6539279ee0265e4af914b8c0"
  },
  "name": "Police Station-Sivana",
  "area": "Aurobindo Ghosh Road",
  "district": "Barmer",
  "state": "Rajasthan",
  "pincode": "390005",
  "latitude": "25.66323",
  "longitude": "72.42531",
  "qr": "http://res.cloudinary.com/ddhncnedj/image/upload/v1698247748/no3qjmcdfciwsgwwiklu.png",
  "population": 0,
  "latitudes": null,
  "longitudes": null
},
{
  "_id": {
    "$oid": "6539279ee0265e4af914b8c1"
  },
  "name": "श्री किर्ष्ण गौशाला संवर्धन केंद्र पक्का सहारणा",
  "area": "Vav",
  "district": "Hanumangarh",
  "state": "Rajasthan",
  "pincode": "India",
  "latitude": "29.68257",
  "longitude": "74.15566",
  "qr": "http://res.cloudinary.com/ddhncnedj/image/upload/v1698247742/rkksbtkbmjytcoo9j1jj.png",
  "population": 0,
  "latitudes": null,
  "longitudes": null
},
{
  "_id": {
    "$oid": "6539279ee0265e4af914b8c2"
  },
  "name": "Police Station-Bilara",
  "area": "Vav",
  "district": "Jodhpur",
  "state": "Rajasthan",
  "pincode": "385570",
  "latitude": "26.21075",
  "longitude": "73.69657",
  "qr": "http://res.cloudinary.com/ddhncnedj/image/upload/v1698247749/mo2df5yzoo9m0suanxru.png",
  "population": 0,
  "latitudes": null,
  "longitudes": null
},
{
  "_id": {
    "$oid": "6539279ee0265e4af914b8c3"
  },
  "name": "Police Station-Ahore",
  "area": "Chuda",
  "district": "Jalor",
  "state": "Rajasthan",
  "pincode": "363410",
  "latitude": "25.37173",
  "longitude": "72.78385",
  "qr": "http://res.cloudinary.com/ddhncnedj/image/upload/v1698247743/tzpovkc5zvszfscyrik8.png",
  "population": 0,
  "latitudes": null,
  "longitudes": null
},
{
  "_id": {
    "$oid": "6539279ee0265e4af914b8c4"
  },
  "name": "Police Station-Gulpada",
  "area": "Rural Police Line",
  "district": "Bharatpur",
  "state": "Rajasthan",
  "pincode": "Nadiad 387001",
  "latitude": "27.53362",
  "longitude": "77.12216",
  "qr": "http://res.cloudinary.com/ddhncnedj/image/upload/v1698247752/pepu9txmz5cvhemxzo7x.png",
  "population": 0,
  "latitudes": null,
  "longitudes": null
},
{
  "_id": {
    "$oid": "6539279ee0265e4af914b8c5"
  },
  "name": "Police Chowki-Tatarpur Choraya",
  "area": "Ahmedabad",
  "district": "Alwar",
  "state": "Rajasthan",
  "pincode": "380008",
  "latitude": "27.75803705",
  "longitude": "76.52317186",
  "qr": "http://res.cloudinary.com/ddhncnedj/image/upload/v1698247746/msohk17qgpa0xgry25oa.png",
  "population": 0,
  "latitudes": null,
  "longitudes": null
},
{
  "_id": {
    "$oid": "6539279ee0265e4af914b8c6"
  },
  "name": "Police Chowki-Town",
  "area": "Yashin Khan Pathan Road",
  "district": "Dhaulpur",
  "state": "Rajasthan",
  "pincode": "390017",
  "latitude": "26.89323",
  "longitude": "78.16826",
  "qr": "http://res.cloudinary.com/ddhncnedj/image/upload/v1698247749/twkp1mshuazcphgv1vn2.png",
  "population": 0,
  "latitudes": null,
  "longitudes": null
},
{
  "_id": {
    "$oid": "6539279ee0265e4af914b8c7"
  },
  "name": "Mahila Police Thana-Babji Nagar",
  "area": "Ahmedabad",
  "district": "Baran",
  "state": "Rajasthan",
  "pincode": "380002",
  "latitude": "25.0968219",
  "longitude": "76.5087851",
  "qr": "http://res.cloudinary.com/ddhncnedj/image/upload/v1698247742/remxlkk3vjccpbyzkyig.png",
  "population": 0,
  "latitudes": null,
  "longitudes": null
},
{
  "_id": {
    "$oid": "6539279ee0265e4af914b8c8"
  },
  "name": "Police Station-Ghugra",
  "area": "Lakkad Road",
  "district": "Ajmer",
  "state": "Rajasthan",
  "pincode": "395003",
  "latitude": "26.4991",
  "longitude": "74.68618",
  "qr": "http://res.cloudinary.com/ddhncnedj/image/upload/v1698247751/urue5qagqdirzies8dut.png",
  "population": 0,
  "latitudes": null,
  "longitudes": null
},
{
  "_id": {
    "$oid": "6539279ee0265e4af914b8c9"
  },
  "name": "Jaitaran Police Station",
  "area": "Songadh",
  "district": "Pali",
  "state": "Rajasthan",
  "pincode": "Songadh",
  "latitude": "26.20215",
  "longitude": "73.938562",
  "qr": "http://res.cloudinary.com/ddhncnedj/image/upload/v1698247745/t0rff4qq2kaaaatp1t6w.png",
  "population": 0,
  "latitudes": null,
  "longitudes": null
},
{
  "_id": {
    "$oid": "6539279ee0265e4af914b8cc"
  },
  "name": "Police Station",
  "area": "Dariapur",
  "district": "Bhilwara",
  "state": "Rajasthan",
  "pincode": "380001",
  "latitude": "25.732783",
  "longitude": "74.334844",
  "qr": "http://res.cloudinary.com/ddhncnedj/image/upload/v1698247743/dkz6hj2srmrorwzenpi6.png",
  "population": 0,
  "latitudes": null,
  "longitudes": null
},
{
  "_id": {
    "$oid": "6539279ee0265e4af914b8cd"
  },
  "name": "कोतवाली पुलिस थाना",
  "area": "SH-63",
  "district": "Sikar",
  "state": "Rajasthan",
  "pincode": "521344",
  "latitude": "27.62",
  "longitude": "75.15",
  "qr": "http://res.cloudinary.com/ddhncnedj/image/upload/v1698247748/wdb5uxzll1m7ii7ecpli.png",
  "population": 0,
  "latitudes": null,
  "longitudes": null
},
{
  "_id": {
    "$oid": "6539279ee0265e4af914b8ce"
  },
  "name": "Railway Police Station-Village Neemrana",
  "area": "Mehsana 384002",
  "district": "Alwar",
  "state": "Rajasthan",
  "pincode": "Mehsana 384002",
  "latitude": "27.5592",
  "longitude": "76.6211",
  "population": 0,
  "latitudes": null,
  "longitudes": null
},
{
  "_id": {
    "$oid": "6539279ee0265e4af914b8d0"
  },
  "name": "Police Station Kanota",
  "area": "Halol",
  "district": "Jaipur",
  "state": "Rajasthan",
  "pincode": "Halol",
  "latitude": "26.89511",
  "longitude": "75.81302",
  "qr": "http://res.cloudinary.com/ddhncnedj/image/upload/v1698247742/oquofmhajeceg8hxxy5b.png",
  "population": 0,
  "latitudes": null,
  "longitudes": null
},
{
  "_id": {
    "$oid": "6539279ee0265e4af914b8d1"
  },
  "name": "Police Station-Kuchera",
  "area": "Main Road Ahwa",
  "district": "Nagaur",
  "state": "Rajasthan",
  "pincode": "Ahwa 394710",
  "latitude": "26.9741",
  "longitude": "73.97074",
  "qr": "http://res.cloudinary.com/ddhncnedj/image/upload/v1698247747/qrfsncxlybgtqa6jlwgx.png",
  "population": 0,
  "latitudes": null,
  "longitudes": null
},
{
  "_id": {
    "$oid": "6539279ee0265e4af914b8d2"
  },
  "name": "डूँगरपूर_ढोलावास_पचवारा_लालसोट_दौसा",
  "area": "Surat",
  "district": "Banswara",
  "state": "Rajasthan",
  "pincode": "395010",
  "latitude": "23.46691",
  "longitude": "74.03032",
  "qr": "http://res.cloudinary.com/ddhncnedj/image/upload/v1698247743/wb1b7pjwgnhygn26rjk0.png",
  "population": 0,
  "latitudes": null,
  "longitudes": null
},
{
  "_id": {
    "$oid": "6539279ee0265e4af914b8d3"
  },
  "name": "Police Station-Magrol",
  "area": "Vadodara",
  "district": "Baran",
  "state": "Rajasthan",
  "pincode": "India",
  "latitude": "25.32403",
  "longitude": "76.51301",
  "qr": "http://res.cloudinary.com/ddhncnedj/image/upload/v1698247747/bz0yyn5tlow1361oxkwt.png",
  "population": 0,
  "latitudes": null,
  "longitudes": null
},
{
  "_id": {
    "$oid": "6539279ee0265e4af914b8d4"
  },
  "name": "Police Station Nadoti",
  "area": "Nawabwadi Road",
  "district": "Karauli",
  "state": "Rajasthan",
  "pincode": "395003",
  "latitude": "26.69935",
  "longitude": "76.7189",
  "qr": "http://res.cloudinary.com/ddhncnedj/image/upload/v1698247742/bfo8nwhcsskfxtud67xx.png",
  "population": 0,
  "latitudes": null,
  "longitudes": null
},
{
  "_id": {
    "$oid": "6539279ee0265e4af914b8d5"
  },
  "name": "Police Station-Nadoti",
  "area": "Sagar Society",
  "district": "Karauli",
  "state": "Rajasthan",
  "pincode": "Mehsana 384002",
  "latitude": "26.69935",
  "longitude": "76.71897",
  "qr": "http://res.cloudinary.com/ddhncnedj/image/upload/v1698247748/trnxxumbvukrczy4pojt.png",
  "population": 0,
  "latitudes": null,
  "longitudes": null
},
{
  "_id": {
    "$oid": "6539279ee0265e4af914b8d6"
  },
  "name": "Police Station Manak Chowk Jaipur",
  "area": "Shankheswar To Radhanpur Road Sami",
  "district": "Jaipur",
  "state": "Rajasthan",
  "pincode": "384245",
  "latitude": "26.91577",
  "longitude": "75.83544",
  "qr": "http://res.cloudinary.com/ddhncnedj/image/upload/v1698247752/ebmjgmnpp7pqs5orec4w.png",
  "population": 0,
  "latitudes": null,
  "longitudes": null
},
{
  "_id": {
    "$oid": "6539279ee0265e4af914b8d7"
  },
  "name": "Kotwali Police Station",
  "area": "Satellite Road",
  "district": "Chittaurgarh",
  "state": "Rajasthan",
  "pincode": "380015",
  "latitude": "24.623724",
  "longitude": "74.689993",
  "qr": "http://res.cloudinary.com/ddhncnedj/image/upload/v1698247743/hfpadt3zaueveiiomxmo.png",
  "population": 0,
  "latitudes": null,
  "longitudes": null
},
{
  "_id": {
    "$oid": "6539279ee0265e4af914b8d8"
  },
  "name": "Pawata Police Chowk",
  "area": "Tankara",
  "district": "Jaipur",
  "state": "Rajasthan",
  "pincode": "India",
  "latitude": "27.582048",
  "longitude": "76.07487",
  "qr": "http://res.cloudinary.com/ddhncnedj/image/upload/v1698247742/zyc4tvmybuax0ywjdicb.png",
  "population": 0,
  "latitudes": null,
  "longitudes": null
},
{
  "_id": {
    "$oid": "6539279ee0265e4af914b8d9"
  },
  "name": "Madar Gate Police Chowki",
  "area": "Nava Naroda Road",
  "district": "Ajmer",
  "state": "Rajasthan",
  "pincode": "382330",
  "latitude": "26.457352",
  "longitude": "74.634915",
  "qr": "http://res.cloudinary.com/ddhncnedj/image/upload/v1698247752/npjs7znqgmvb2fz7mqav.png",
  "population": 0,
  "latitudes": null,
  "longitudes": null
},
{
  "_id": {
    "$oid": "6539279ee0265e4af914b8da"
  },
  "name": "Police station-Vikas path Mohalla",
  "area": "વાપી જી.આઇ.ડી.સી પોલીસ સ્ટેશન ની સામે",
  "district": "Alwar",
  "state": "Rajasthan",
  "pincode": "Valsad 396195",
  "latitude": "27.56777",
  "longitude": "76.60573",
  "qr": "http://res.cloudinary.com/ddhncnedj/image/upload/v1698247752/phv4u9vjd8zehfpmiwqp.png",
  "population": 0,
  "latitudes": null,
  "longitudes": null
},
{
  "_id": {
    "$oid": "6539279ee0265e4af914b8db"
  },
  "name": "Rayla Thana",
  "area": "Palanpur 385001",
  "district": "Bhilwara",
  "state": "Rajasthan",
  "pincode": "Palanpur 385001",
  "latitude": "25.35",
  "longitude": "74.6316",
  "qr": "http://res.cloudinary.com/ddhncnedj/image/upload/v1698247743/bsrtjea3wnqmdm7okqp0.png",
  "population": 0,
  "latitudes": null,
  "longitudes": null
},
{
  "_id": {
    "$oid": "6539279ee0265e4af914b8dc"
  },
  "name": "Police Station-Bhinder",
  "area": "Putlur Road",
  "district": "Udaipur",
  "state": "Rajasthan",
  "pincode": "Tadipatri 515411",
  "latitude": "24.5092314889",
  "longitude": "74.1859685243",
  "qr": "http://res.cloudinary.com/ddhncnedj/image/upload/v1698247751/q5k5ce1qtufui2h3dxy4.png",
  "population": 0,
  "latitudes": null,
  "longitudes": null
},
{
  "_id": {
    "$oid": "6539279ee0265e4af914b8de"
  },
  "name": "Police Station-Sanchore",
  "area": "Ahmedabad",
  "district": "Jalor",
  "state": "Rajasthan",
  "pincode": "382445",
  "latitude": "24.7624248728",
  "longitude": "71.7789199654",
  "qr": "http://res.cloudinary.com/ddhncnedj/image/upload/v1698247743/btpvcm72gouxfhavewef.png",
  "population": 0,
  "latitudes": null,
  "longitudes": null
},
{
  "_id": {
    "$oid": "6539279ee0265e4af914b8df"
  },
  "name": "Rajasthan Police Training Centre Jodhpur",
  "area": "Navabazar",
  "district": "Jodhpur",
  "state": "Rajasthan",
  "pincode": "390001",
  "latitude": "26.32796595",
  "longitude": "73.0408081",
  "qr": "http://res.cloudinary.com/ddhncnedj/image/upload/v1698247742/zyi8wxnu8pra0p2jnrg4.png",
  "population": 0,
  "latitudes": null,
  "longitudes": null
},
{
  "_id": {
    "$oid": "6539279ee0265e4af914b8e0"
  },
  "name": "Police Chowki-Udyog Vihar",
  "area": "Sankheda",
  "district": "Udaipur",
  "state": "Rajasthan",
  "pincode": "391125",
  "latitude": "24.63645",
  "longitude": "73.71005",
  "qr": "http://res.cloudinary.com/ddhncnedj/image/upload/v1698247745/qrnk1lfhqrg0h9na4egg.png",
  "population": 0,
  "latitudes": null,
  "longitudes": null
},
{
  "_id": {
    "$oid": "6539279ee0265e4af914b8e1"
  },
  "name": "Police Station-Hanumangarh",
  "area": "Umargam",
  "district": "Hanumangarh",
  "state": "Rajasthan",
  "pincode": "396170",
  "latitude": "29.6095",
  "longitude": "74.28899",
  "qr": "http://res.cloudinary.com/ddhncnedj/image/upload/v1698247751/r6a1f13m6r3gsplmasnc.png",
  "population": 0,
  "latitudes": null,
  "longitudes": null
},
{
  "_id": {
    "$oid": "6539279ee0265e4af914b8e2"
  },
  "name": "Police Station-Jahazpur",
  "area": "Harni",
  "district": "Bhilwara",
  "state": "Rajasthan",
  "pincode": "390022",
  "latitude": "25.6161803",
  "longitude": "75.2726512001",
  "qr": "http://res.cloudinary.com/ddhncnedj/image/upload/v1698247742/bnzzplb6rcjp2djwg4gj.png",
  "population": 0,
  "latitudes": null,
  "longitudes": null
},
{
  "_id": {
    "$oid": "6539279ee0265e4af914b8e3"
  },
  "name": "Police Station-Gothra",
  "area": "Vatva Gidc Road",
  "district": "Jhunjhunun",
  "state": "Rajasthan",
  "pincode": "382445",
  "latitude": "28.0689",
  "longitude": "75.81671",
  "qr": "http://res.cloudinary.com/ddhncnedj/image/upload/v1698247744/t4h3ng4joopxalccotko.png",
  "population": 0,
  "latitudes": null,
  "longitudes": null
},
{
  "_id": {
    "$oid": "6539279ee0265e4af914b8e4"
  },
  "name": "Reserve Police Line",
  "area": "Ashram Road",
  "district": "Jhunjhunun",
  "state": "Rajasthan",
  "pincode": "380027",
  "latitude": "28.100918",
  "longitude": "75.37222",
  "qr": "http://res.cloudinary.com/ddhncnedj/image/upload/v1698247747/qwjghytgenodffxzj41a.png",
  "population": 0,
  "latitudes": null,
  "longitudes": null
},
{
  "_id": {
    "$oid": "6539279ee0265e4af914b8e6"
  },
  "name": "Police Chowki",
  "area": "Ahmedabad",
  "district": "Churu",
  "state": "Rajasthan",
  "pincode": "382418",
  "latitude": "27.834298",
  "longitude": "74.332289",
  "qr": "http://res.cloudinary.com/ddhncnedj/image/upload/v1698247751/il4zbtemwkpriqhxzpat.png",
  "population": 0,
  "latitudes": null,
  "longitudes": null
},
{
  "_id": {
    "$oid": "6539279ee0265e4af914b8e7"
  },
  "name": "Police Station-Sanjay Circle Alternate Gate No 1",
  "area": "Ahmedabad",
  "district": "Jaipur",
  "state": "Rajasthan",
  "pincode": "382418",
  "latitude": "26.92609",
  "longitude": "75.80803",
  "qr": "http://res.cloudinary.com/ddhncnedj/image/upload/v1698247745/cuklwdtztfdrk1grpljn.png",
  "population": 0,
  "latitudes": null,
  "longitudes": null
},
{
  "_id": {
    "$oid": "6539279ee0265e4af914b8e8"
  },
  "name": "Police Station-Rohira",
  "area": "Mehsana 384002",
  "district": "Udaipur",
  "state": "Rajasthan",
  "pincode": "Mehsana 384002",
  "latitude": "24.58081912",
  "longitude": "73.72211365",
  "qr": "http://res.cloudinary.com/ddhncnedj/image/upload/v1698247752/xyftw9z6ffipvncztpzy.png",
  "population": 0,
  "latitudes": null,
  "longitudes": null
},
{
  "_id": {
    "$oid": "6539279ee0265e4af914b8e9"
  },
  "name": "Police Chowki Rambari",
  "area": "Nadiad 387375",
  "district": "Jaipur",
  "state": "Rajasthan",
  "pincode": "Nadiad 387375",
  "latitude": "26.811515",
  "longitude": "75.788898",
  "qr": "http://res.cloudinary.com/ddhncnedj/image/upload/v1698247749/ioargddxzgtqg3kztctw.png",
  "population": 0,
  "latitudes": null,
  "longitudes": null
},
{
  "_id": {
    "$oid": "6539279ee0265e4af914b8ea"
  },
  "name": "Police Station-kotali tonk",
  "area": "SH-31",
  "district": "Tonk",
  "state": "Rajasthan",
  "pincode": "Tadipatri 515411",
  "latitude": "26.169996539",
  "longitude": "75.786880807",
  "qr": "http://res.cloudinary.com/ddhncnedj/image/upload/v1698247752/mkrjxlq1gm5bjrabo3bo.png",
  "population": 0,
  "latitudes": null,
  "longitudes": null
},
{
  "_id": {
    "$oid": "6539279ee0265e4af914b8eb"
  },
  "name": "Mahila Police Thana",
  "area": "Halvad",
  "district": "Kota",
  "state": "Rajasthan",
  "pincode": "Halvad",
  "latitude": "25.175515",
  "longitude": "75.841248",
  "qr": "http://res.cloudinary.com/ddhncnedj/image/upload/v1698247748/jrfpsnnfzr8mrkptjdyq.png",
  "population": 0,
  "latitudes": null,
  "longitudes": null
},
{
  "_id": {
    "$oid": "6539279ee0265e4af914b8ed"
  },
  "name": "Police Station-Gendoli",
  "area": "Rama Kaka Road",
  "district": "Bundi",
  "state": "Rajasthan",
  "pincode": "391740",
  "latitude": "25.5438053",
  "longitude": "75.9817135",
  "qr": "http://res.cloudinary.com/ddhncnedj/image/upload/v1698247746/s3hsbz2knluovl3g6vna.png",
  "population": 0,
  "latitudes": null,
  "longitudes": null
},
{
  "_id": {
    "$oid": "6539279ee0265e4af914b8ee"
  },
  "name": "National Highway Patrolling Police Out Post",
  "area": "Vadodara",
  "district": "Tonk",
  "state": "Rajasthan",
  "pincode": "390024",
  "latitude": "26.35869",
  "longitude": "75.94901",
  "qr": "http://res.cloudinary.com/ddhncnedj/image/upload/v1698247742/udvddbnenyszju3eolpb.png",
  "population": 0,
  "latitudes": null,
  "longitudes": null
},
{
  "_id": {
    "$oid": "6539279ee0265e4af914b8ef"
  },
  "name": "Kasba Chowki Bhakarota",
  "area": "Maharshi Dayanand Marg",
  "district": "Jaipur",
  "state": "Rajasthan",
  "pincode": "390009",
  "latitude": "26.874212",
  "longitude": "75.691247",
  "qr": "http://res.cloudinary.com/ddhncnedj/image/upload/v1698247750/xf4ufawgtva5o8jbf22x.png",
  "population": 0,
  "latitudes": null,
  "longitudes": null
},
{
  "_id": {
    "$oid": "6539279ee0265e4af914b8f1"
  },
  "name": "Police Station-Chowki",
  "area": "Dudhrej 363001",
  "district": "Bharatpur",
  "state": "Rajasthan",
  "pincode": "Dudhrej 363001",
  "latitude": "27.20723",
  "longitude": "77.53981",
  "qr": "http://res.cloudinary.com/ddhncnedj/image/upload/v1698247748/kqasq5fp6i8dyarszsvg.png",
  "population": 0,
  "latitudes": null,
  "longitudes": null
},
{
  "_id": {
    "$oid": "6539279ee0265e4af914b8f2"
  },
  "name": "Office of Assistant Comissioner of Police Rajasthan",
  "area": "Madhavpura",
  "district": "Jaipur",
  "state": "Rajasthan",
  "pincode": "380004",
  "latitude": "26.86818",
  "longitude": "75.75417",
  "qr": "http://res.cloudinary.com/ddhncnedj/image/upload/v1698247746/mmokx8dej45nepxwn2x1.png",
  "population": 0,
  "latitudes": null,
  "longitudes": null
},
{
  "_id": {
    "$oid": "6539279ee0265e4af914b8f3"
  },
  "name": "Mahila Police Thana",
  "area": "Surat Dumas Road",
  "district": "Kota",
  "state": "Rajasthan",
  "pincode": "395007",
  "latitude": "25.175515",
  "longitude": "75.841248",
  "qr": "http://res.cloudinary.com/ddhncnedj/image/upload/v1698247749/hk4xlhexak31swfdokvl.png",
  "population": 0,
  "latitudes": null,
  "longitudes": null
},
{
  "_id": {
    "$oid": "6539279ee0265e4af914b8f4"
  },
  "name": "Police Station-Rajkiy Railway",
  "area": "Kuvadva Road",
  "district": "Sawai Madhopur",
  "state": "Rajasthan",
  "pincode": "",
  "latitude": "26.01729",
  "longitude": "76.35481",
  "qr": "http://res.cloudinary.com/ddhncnedj/image/upload/v1698247744/q7fz73e2id7vqwxgl7gs.png",
  "population": 0,
  "latitudes": null,
  "longitudes": null
},
{
  "_id": {
    "$oid": "6539279ee0265e4af914b8f5"
  },
  "name": "Godagati Police Chowki",
  "area": "SH-6",
  "district": "Rajsamand",
  "state": "Rajasthan",
  "pincode": "Borsad 388530",
  "latitude": "24.853423",
  "longitude": "73.768869",
  "qr": "http://res.cloudinary.com/ddhncnedj/image/upload/v1698247750/l8gwekwiydmzv0mj1iri.png",
  "population": 0,
  "latitudes": null,
  "longitudes": null
},
{
  "_id": {
    "$oid": "6539279ee0265e4af914b8f6"
  },
  "name": "Diwer Police Thana",
  "area": "SH-60",
  "district": "Rajsamand",
  "state": "Rajasthan",
  "pincode": "Dakor 388225",
  "latitude": "25.4297988544",
  "longitude": "73.8208615829",
  "qr": "http://res.cloudinary.com/ddhncnedj/image/upload/v1698247746/l37hlfvw1k5kru73tfk7.png",
  "population": 0,
  "latitudes": null,
  "longitudes": null
},
{
  "_id": {
    "$oid": "6539279ee0265e4af914b8f8"
  },
  "name": "Police Station-Khetri",
  "area": "Khed Brahma",
  "district": "Jhunjhunun",
  "state": "Rajasthan",
  "pincode": "383255",
  "latitude": "28.03004",
  "longitude": "75.80765",
  "qr": "http://res.cloudinary.com/ddhncnedj/image/upload/v1698247748/fzz8rdbyoikgfxhu6vsw.png",
  "population": 0,
  "latitudes": null,
  "longitudes": null
},
{
  "_id": {
    "$oid": "6539279ee0265e4af914b8f9"
  },
  "name": "Police Station-Todabhim",
  "area": "Satellite Service Road",
  "district": "Karauli",
  "state": "Rajasthan",
  "pincode": "380015",
  "latitude": "26.9185516",
  "longitude": "76.8153677",
  "qr": "http://res.cloudinary.com/ddhncnedj/image/upload/v1698247751/hgluf8cq39idrmql2doe.png",
  "population": 0,
  "latitudes": null,
  "longitudes": null
},
{
  "_id": {
    "$oid": "6539279ee0265e4af914b8fa"
  },
  "name": "Police Station",
  "area": "Dahej Road",
  "district": "Bhilwara",
  "state": "Rajasthan",
  "pincode": "Bharuch 392001",
  "latitude": "25.732783",
  "longitude": "74.334844",
  "qr": "http://res.cloudinary.com/ddhncnedj/image/upload/v1698247746/jyx5inriv9uegyjevazg.png",
  "population": 0,
  "latitudes": null,
  "longitudes": null
},
{
  "_id": {
    "$oid": "6539279ee0265e4af914b8fb"
  },
  "name": "Police Station-Dhan Mandi",
  "area": "Near Juma Masjid Road",
  "district": "Udaipur",
  "state": "Rajasthan",
  "pincode": "Bharuch 392001",
  "latitude": "24.58274",
  "longitude": "73.69394",
  "qr": "http://res.cloudinary.com/ddhncnedj/image/upload/v1698247745/alwm4c7usdriwfs5bgsx.png",
  "population": 0,
  "latitudes": null,
  "longitudes": null
},
{
  "_id": {
    "$oid": "6539279ee0265e4af914b8fc"
  },
  "name": "Police Station-Mandore",
  "area": "Rajkot",
  "district": "Pali",
  "state": "Rajasthan",
  "pincode": "360025",
  "latitude": "26.01794",
  "longitude": "73.85133",
  "qr": "http://res.cloudinary.com/ddhncnedj/image/upload/v1698247742/hnpapf967kzbben8dzm9.png",
  "population": 0,
  "latitudes": null,
  "longitudes": null
},
{
  "_id": {
    "$oid": "6539279ee0265e4af914b8fd"
  },
  "name": "Jhamar Kotra Police Station",
  "area": "Pani Ki Tanki Road",
  "district": "Udaipur",
  "state": "Rajasthan",
  "pincode": "394220",
  "latitude": "24.490088",
  "longitude": "73.844993",
  "qr": "http://res.cloudinary.com/ddhncnedj/image/upload/v1698247746/dnbw9kqrpbbpqmbqmi4o.png",
  "population": 0,
  "latitudes": null,
  "longitudes": null
},
{
  "_id": {
    "$oid": "6539279ee0265e4af914b8fe"
  },
  "name": "Police Station-Sardarshahar",
  "area": "I. G. Road",
  "district": "Churu",
  "state": "Rajasthan",
  "pincode": "Jamnagar 361001",
  "latitude": "28.44364",
  "longitude": "74.50233",
  "qr": "http://res.cloudinary.com/ddhncnedj/image/upload/v1698247749/a4c9ah8zv5pw0oejyr6q.png",
  "population": 0,
  "latitudes": null,
  "longitudes": null
},
{
  "_id": {
    "$oid": "6539279ee0265e4af914b8ff"
  },
  "name": "Dantor Range Khajuwala",
  "area": "Idgah Circle",
  "district": "Jodhpur",
  "state": "Rajasthan",
  "pincode": "380004",
  "latitude": "26.3022765",
  "longitude": "73.0385032",
  "qr": "http://res.cloudinary.com/ddhncnedj/image/upload/v1698247751/upzjkwsjk7gztrvefftx.png",
  "population": 0,
  "latitudes": null,
  "longitudes": null
},
{
  "_id": {
    "$oid": "6539279ee0265e4af914b900"
  },
  "name": "Police Station-Gadhi Bajna",
  "area": "Ahmedabad",
  "district": "Bharatpur",
  "state": "Rajasthan",
  "pincode": "380001",
  "latitude": "26.81309",
  "longitude": "77.42796",
  "qr": "http://res.cloudinary.com/ddhncnedj/image/upload/v1698247746/mem2g5x099txelpslmot.png",
  "population": 0,
  "latitudes": null,
  "longitudes": null
},
{
  "_id": {
    "$oid": "6539279ee0265e4af914b902"
  },
  "name": "Police Station-Asawar",
  "area": "Bharuch 392001",
  "district": "Jhalawar",
  "state": "Rajasthan",
  "pincode": "Bharuch 392001",
  "latitude": "24.47193",
  "longitude": "76.34347",
  "qr": "http://res.cloudinary.com/ddhncnedj/image/upload/v1698247746/hg6kzgwbkhbnmbpcowle.png",
  "population": 0,
  "latitudes": null,
  "longitudes": null
},
{
  "_id": {
    "$oid": "6539279ee0265e4af914b903"
  },
  "name": "Police Control Room",
  "area": "Khanpur Road",
  "district": "Ganganagar",
  "state": "Rajasthan",
  "pincode": "380001",
  "latitude": "29.931639",
  "longitude": "73.871444",
  "qr": "http://res.cloudinary.com/ddhncnedj/image/upload/v1698247745/oq89ajs2c4sycmv1usix.png",
  "population": 0,
  "latitudes": null,
  "longitudes": null
},
{
  "_id": {
    "$oid": "6539279ee0265e4af914b904"
  },
  "name": "Police Station-Choti Sadri",
  "area": "MG Road Opposite - Kamla Nehru Park",
  "district": "Pratapgarh",
  "state": "Rajasthan",
  "pincode": "Porbandar 360575",
  "latitude": "24.38502",
  "longitude": "74.70416",
  "qr": "http://res.cloudinary.com/ddhncnedj/image/upload/v1698247745/uolkalbmct7av1ftgfwq.png",
  "population": 0,
  "latitudes": null,
  "longitudes": null
},
{
  "_id": {
    "$oid": "6539279ee0265e4af914b905"
  },
  "name": "Police Head Quarter, Jaipur",
  "area": "Porbandar",
  "district": "Jaipur",
  "state": "Rajasthan",
  "pincode": "Porbandar",
  "latitude": "26.88566696",
  "longitude": "75.79922024",
  "qr": "http://res.cloudinary.com/ddhncnedj/image/upload/v1698247746/snch6gilkc9lpkuyilp2.png",
  "population": 0,
  "latitudes": null,
  "longitudes": null
},
{
  "_id": {
    "$oid": "6539279ee0265e4af914b906"
  },
  "name": "Ramganj Police Station",
  "area": "Kirti Mandir Road",
  "district": "Ajmer",
  "state": "Rajasthan",
  "pincode": "Porbandar 360575",
  "latitude": "26.423523",
  "longitude": "74.630321",
  "qr": "http://res.cloudinary.com/ddhncnedj/image/upload/v1698247749/yxcukjgk2skh7wilashm.png",
  "population": 0,
  "latitudes": null,
  "longitudes": null
},
{
  "_id": {
    "$oid": "6539279ee0265e4af914b907"
  },
  "name": "Charbhuja Police Station",
  "area": "Porbandar 360575",
  "district": "Rajsamand",
  "state": "Rajasthan",
  "pincode": "Porbandar 360575",
  "latitude": "25.281776",
  "longitude": "73.783693",
  "qr": "http://res.cloudinary.com/ddhncnedj/image/upload/v1698247749/og0hr47yilzzdq76jrcc.png",
  "population": 0,
  "latitudes": null,
  "longitudes": null
},
{
  "_id": {
    "$oid": "6539279ee0265e4af914b908"
  },
  "name": "Police Station-hathipole",
  "area": "Talaja 364130",
  "district": "Udaipur",
  "state": "Rajasthan",
  "pincode": "Talaja 364130",
  "latitude": "24.58922",
  "longitude": "73.68941",
  "qr": "http://res.cloudinary.com/ddhncnedj/image/upload/v1698247750/c1cftryw7alhzr6famnz.png",
  "population": 0,
  "latitudes": null,
  "longitudes": null
},
{
  "_id": {
    "$oid": "6539279ee0265e4af914b909"
  },
  "name": "Police Station-Jharol",
  "area": "Bhuj 370002",
  "district": "Udaipur",
  "state": "Rajasthan",
  "pincode": "Bhuj 370002",
  "latitude": "24.41333",
  "longitude": "73.47681",
  "qr": "http://res.cloudinary.com/ddhncnedj/image/upload/v1698247743/hnwvtqq56wnrewt0fjqt.png",
  "population": 0,
  "latitudes": null,
  "longitudes": null
},
{
  "_id": {
    "$oid": "6539279ee0265e4af914b90a"
  },
  "name": "Mahila Police Station-Nagaur",
  "area": "Surat",
  "district": "Nagaur",
  "state": "Rajasthan",
  "pincode": "395003",
  "latitude": "27.20007",
  "longitude": "73.73047",
  "qr": "http://res.cloudinary.com/ddhncnedj/image/upload/v1698247744/sd1rsrduws8glto5tbps.png",
  "population": 0,
  "latitudes": null,
  "longitudes": null
},
{
  "_id": {
    "$oid": "6539279ee0265e4af914b90b"
  },
  "name": "Police Station-Alwar",
  "area": "Borsad 388530",
  "district": "Alwar",
  "state": "Rajasthan",
  "pincode": "Borsad 388530",
  "latitude": "27.56456",
  "longitude": "76.61384",
  "qr": "http://res.cloudinary.com/ddhncnedj/image/upload/v1698247750/f0kc4mrqra61yl4ulrgq.png",
  "population": 0,
  "latitudes": null,
  "longitudes": null
},
{
  "_id": {
    "$oid": "6539279ee0265e4af914b90c"
  },
  "name": "Police Station",
  "area": "Tadepalligudem 534101",
  "district": "Bhilwara",
  "state": "Rajasthan",
  "pincode": "Tadepalligudem 534101",
  "latitude": "25.732783",
  "longitude": "74.334844",
  "qr": "http://res.cloudinary.com/ddhncnedj/image/upload/v1698247752/j2hqfg3ellzr3ma85orj.png",
  "population": 0,
  "latitudes": null,
  "longitudes": null
},
{
  "_id": {
    "$oid": "6539279ee0265e4af914b90d"
  },
  "name": "Chanderiya Police Station",
  "area": "SH-26",
  "district": "Chittaurgarh",
  "state": "Rajasthan",
  "pincode": "362260",
  "latitude": "24.91428",
  "longitude": "74.62281",
  "qr": "http://res.cloudinary.com/ddhncnedj/image/upload/v1698247750/vzex2z5y8rkuft1qtz7o.png",
  "population": 0,
  "latitudes": null,
  "longitudes": null
},
{
  "_id": {
    "$oid": "6539279ee0265e4af914b90f"
  },
  "name": "Police Station-Abkari",
  "area": "Old Surat Mumbai Highway",
  "district": "Jaipur",
  "state": "Rajasthan",
  "pincode": "",
  "latitude": "26.9240318",
  "longitude": "75.821584",
  "qr": "http://res.cloudinary.com/ddhncnedj/image/upload/v1698247750/osxctakfjdqzivrufder.png",
  "population": 0,
  "latitudes": null,
  "longitudes": null
},
{
  "_id": {
    "$oid": "6539279ee0265e4af914b911"
  },
  "name": "Police Chowki-Ganj",
  "area": "NH-51",
  "district": "Ajmer",
  "state": "Rajasthan",
  "pincode": "",
  "latitude": "26.46262",
  "longitude": "74.63144",
  "qr": "http://res.cloudinary.com/ddhncnedj/image/upload/v1698247743/agwtwkeqnxhyheym7am8.png",
  "population": 0,
  "latitudes": null,
  "longitudes": null
},
{
  "_id": {
    "$oid": "6539279ee0265e4af914b912"
  },
  "name": "Police Station-Jhalrapatan",
  "area": "Nh51",
  "district": "Jhalawar",
  "state": "Rajasthan",
  "pincode": "",
  "latitude": "24.54735",
  "longitude": "76.17286",
  "qr": "http://res.cloudinary.com/ddhncnedj/image/upload/v1698247749/ys0dr0tzzxavxrvqvu4o.png",
  "population": 0,
  "latitudes": null,
  "longitudes": null
},
{
  "_id": {
    "$oid": "6539279ee0265e4af914b913"
  },
  "name": "Abkari Thana Station-Jaipur Road",
  "area": "SH-95",
  "district": "Ajmer",
  "state": "Rajasthan",
  "pincode": "360550",
  "latitude": "25.9731",
  "longitude": "75.15096",
  "qr": "http://res.cloudinary.com/ddhncnedj/image/upload/v1698247745/jzijpi9mlidvnnryin7x.png",
  "population": 0,
  "latitudes": null,
  "longitudes": null
},
{
  "_id": {
    "$oid": "6539279ee0265e4af914b914"
  },
  "name": "Police Station Bapacha",
  "area": "Nagani Road",
  "district": "Baran",
  "state": "Rajasthan",
  "pincode": "",
  "latitude": "24.6181182861",
  "longitude": "77.031791687",
  "qr": "http://res.cloudinary.com/ddhncnedj/image/upload/v1698247746/ouswjabjjibspqeqxep3.png",
  "population": 0,
  "latitudes": null,
  "longitudes": null
},
{
  "_id": {
    "$oid": "6539279ee0265e4af914b915"
  },
  "name": "Kotwali Police Station",
  "area": "SH-31",
  "district": "Chittaurgarh",
  "state": "Rajasthan",
  "pincode": "",
  "latitude": "24.623724",
  "longitude": "74.689993",
  "qr": "http://res.cloudinary.com/ddhncnedj/image/upload/v1698247752/dbcsserv9lsicwbycpzt.png",
  "population": 0,
  "latitudes": null,
  "longitudes": null
},
{
  "_id": {
    "$oid": "6539279ee0265e4af914b916"
  },
  "name": "Gumanpura Police Station",
  "area": "SH-320",
  "district": "Kota",
  "state": "Rajasthan",
  "pincode": "",
  "latitude": "25.169751",
  "longitude": "75.852805",
  "qr": "http://res.cloudinary.com/ddhncnedj/image/upload/v1698247746/wlqkpcqywdc7uxdsc1vy.png",
  "population": 0,
  "latitudes": null,
  "longitudes": null
},
{
  "_id": {
    "$oid": "6539279ee0265e4af914b917"
  },
  "name": "Reejav Police Line-Churu",
  "area": "Gj Sh122",
  "district": "Churu",
  "state": "Rajasthan",
  "pincode": "",
  "latitude": "28.2881496",
  "longitude": "74.9642996",
  "qr": "http://res.cloudinary.com/ddhncnedj/image/upload/v1698247749/ankewsagfis7runbfu9z.png",
  "population": 0,
  "latitudes": null,
  "longitudes": null
},
{
  "_id": {
    "$oid": "6539279ee0265e4af914b918"
  },
  "name": "Police Station-Bagar",
  "area": "Ring Road",
  "district": "Jhunjhunun",
  "state": "Rajasthan",
  "pincode": "",
  "latitude": "28.1809",
  "longitude": "75.50209",
  "qr": "http://res.cloudinary.com/ddhncnedj/image/upload/v1698247745/qjb8i63rztiy4r0ynnf1.png",
  "population": 0,
  "latitudes": null,
  "longitudes": null
},
{
  "_id": {
    "$oid": "6539279ee0265e4af914b919"
  },
  "name": "Police Station-Halena",
  "area": "Sukhnath Nagar",
  "district": "Bharatpur",
  "state": "Rajasthan",
  "pincode": "",
  "latitude": "27.1124567738",
  "longitude": "77.1562402237",
  "qr": "http://res.cloudinary.com/ddhncnedj/image/upload/v1698247747/lowvhv2ises3tqzghz2b.png",
  "population": 0,
  "latitudes": null,
  "longitudes": null
},
{
  "_id": {
    "$oid": "6539279ee0265e4af914b91a"
  },
  "name": "Hathi Pole Police Station",
  "area": "Near Sh91",
  "district": "Udaipur",
  "state": "Rajasthan",
  "pincode": "",
  "latitude": "24.58915",
  "longitude": "73.689146",
  "qr": "http://res.cloudinary.com/ddhncnedj/image/upload/v1698247745/elegnozociren4pzi1w4.png",
  "population": 0,
  "latitudes": null,
  "longitudes": null
},
{
  "_id": {
    "$oid": "6539279ee0265e4af914b91b"
  },
  "name": "Police Station-Pandare",
  "area": "SH-91",
  "district": "Bhilwara",
  "state": "Rajasthan",
  "pincode": "",
  "latitude": "25.6382731",
  "longitude": "75.1900807",
  "qr": "http://res.cloudinary.com/ddhncnedj/image/upload/v1698247752/rdeaj6hayqneeouupxye.png",
  "population": 0,
  "latitudes": null,
  "longitudes": null
},
{
  "_id": {
    "$oid": "6539279ee0265e4af914b91c"
  },
  "name": "Jhalrapatan Police Station",
  "area": "Main Road",
  "district": "Jhalawar",
  "state": "Rajasthan",
  "pincode": "",
  "latitude": "24.546829",
  "longitude": "76.169695",
  "qr": "http://res.cloudinary.com/ddhncnedj/image/upload/v1698247742/kgvmn20dubksbfrklvuz.png",
  "population": 0,
  "latitudes": null,
  "longitudes": null
},
{
  "_id": {
    "$oid": "6539279ee0265e4af914b91d"
  },
  "name": "Police Station-Nayasahar",
  "area": "Bambakama Road",
  "district": "Bikaner",
  "state": "Rajasthan",
  "pincode": "",
  "latitude": "28.0180698",
  "longitude": "73.2920756",
  "qr": "http://res.cloudinary.com/ddhncnedj/image/upload/v1698247742/cqhjhmkjzklezboubypp.png",
  "population": 0,
  "latitudes": null,
  "longitudes": null
},
{
  "_id": {
    "$oid": "6539279ee0265e4af914b91e"
  },
  "name": "Kesar Bagh Police Chowki",
  "area": "Jarod Baypass",
  "district": "Ajmer",
  "state": "Rajasthan",
  "pincode": "",
  "latitude": "26.470883",
  "longitude": "74.634041",
  "qr": "http://res.cloudinary.com/ddhncnedj/image/upload/v1698247747/exaq2lnspxazzgk3qxkm.png",
  "population": 0,
  "latitudes": null,
  "longitudes": null
},
{
  "_id": {
    "$oid": "6539279ee0265e4af914b91f"
  },
  "name": "Police Station",
  "area": "SH-63",
  "district": "Bhilwara",
  "state": "Rajasthan",
  "pincode": "",
  "latitude": "25.732783",
  "longitude": "74.334844",
  "qr": "http://res.cloudinary.com/ddhncnedj/image/upload/v1698247750/yxbmdguenhfws5tyxwsn.png",
  "population": 0,
  "latitudes": null,
  "longitudes": null
},
{
  "_id": {
    "$oid": "6539279ee0265e4af914b920"
  },
  "name": "Police Station-Dewair",
  "area": "Indira Gandhi Road",
  "district": "Rajsamand",
  "state": "Rajasthan",
  "pincode": "",
  "latitude": "25.43002",
  "longitude": "73.82141",
  "qr": "http://res.cloudinary.com/ddhncnedj/image/upload/v1698247744/ujnytb2forbg4djyz35p.png",
  "population": 0,
  "latitudes": null,
  "longitudes": null
},
{
  "_id": {
    "$oid": "6539279ee0265e4af914b921"
  },
  "name": "Police Station Adarsh Nagar",
  "area": "Koparli Road",
  "district": "Ajmer",
  "state": "Rajasthan",
  "pincode": "",
  "latitude": "26.401219",
  "longitude": "74.650996",
  "qr": "http://res.cloudinary.com/ddhncnedj/image/upload/v1698247746/jqhk2npoptvlykcdksxj.png",
  "population": 0,
  "latitudes": null,
  "longitudes": null
},
{
  "_id": {
    "$oid": "6539279ee0265e4af914b923"
  },
  "name": "Police Station Bichiiwara",
  "area": "Shri Vasudevdasji Maharaj Marg",
  "district": "Dungarpur",
  "state": "Rajasthan",
  "pincode": "",
  "latitude": "23.75324",
  "longitude": "73.8919",
  "qr": "http://res.cloudinary.com/ddhncnedj/image/upload/v1698247742/tgmbgiuvecy0uvehdwh6.png",
  "population": 0,
  "latitudes": null,
  "longitudes": null
},
{
  "_id": {
    "$oid": "6539279ee0265e4af914b925"
  },
  "name": "Police Station",
  "area": "Raghunathpura Station Road",
  "district": "Bhilwara",
  "state": "Rajasthan",
  "pincode": "",
  "latitude": "25.732783",
  "longitude": "74.334844",
  "qr": "http://res.cloudinary.com/ddhncnedj/image/upload/v1698247750/vj0r5czofdpvfo5uocws.png",
  "population": 0,
  "latitudes": null,
  "longitudes": null
},
{
  "_id": {
    "$oid": "6539279ee0265e4af914b926"
  },
  "name": "Police Station-Fatehpur",
  "area": "Chandod Village Road",
  "district": "Udaipur",
  "state": "Rajasthan",
  "pincode": "391105",
  "latitude": "24.6094",
  "longitude": "73.6869",
  "qr": "http://res.cloudinary.com/ddhncnedj/image/upload/v1698247751/cchtmkjfxejd7bf2rhbr.png",
  "population": 0,
  "latitudes": null,
  "longitudes": null
},
{
  "_id": {
    "$oid": "6539279ee0265e4af914b927"
  },
  "name": "Police Station-Bikani",
  "area": "India Colony Road",
  "district": "Jhalawar",
  "state": "Rajasthan",
  "pincode": "382350",
  "latitude": "24.28211",
  "longitude": "76.24715",
  "qr": "http://res.cloudinary.com/ddhncnedj/image/upload/v1698247752/xfengan0n1ckfdbm4iba.png",
  "population": 0,
  "latitudes": null,
  "longitudes": null
},
{
  "_id": {
    "$oid": "6539279ee0265e4af914b928"
  },
  "name": "Police station Mansarovar",
  "area": "Near Bus Stand Road",
  "district": "Jaipur",
  "state": "Rajasthan",
  "pincode": "391440",
  "latitude": "26.8680773",
  "longitude": "75.7543215",
  "qr": "http://res.cloudinary.com/ddhncnedj/image/upload/v1698247751/rckrsd25bnl8x5hdmoxy.png",
  "population": 0,
  "latitudes": null,
  "longitudes": null
},
{
  "_id": {
    "$oid": "6539279ee0265e4af914b929"
  },
  "name": "Bhopalpura Police Station",
  "area": "Blue Star Cinema",
  "district": "Udaipur",
  "state": "Rajasthan",
  "pincode": "",
  "latitude": "24.587828",
  "longitude": "73.701435",
  "qr": "http://res.cloudinary.com/ddhncnedj/image/upload/v1698247746/nwca5p9xska9pkloduyv.png",
  "population": 0,
  "latitudes": null,
  "longitudes": null
},
{
  "_id": {
    "$oid": "6539279ee0265e4af914b92a"
  },
  "name": "Police Station-Temple Road",
  "area": "Sutarna Karkhana Road",
  "district": "Tonk",
  "state": "Rajasthan",
  "pincode": "",
  "latitude": "26.02439",
  "longitude": "75.48556",
  "qr": "http://res.cloudinary.com/ddhncnedj/image/upload/v1698247749/uqbmr4i4ohwo5pbfdgvi.png",
  "population": 0,
  "latitudes": null,
  "longitudes": null
},
{
  "_id": {
    "$oid": "6539279ee0265e4af914b92c"
  },
  "name": "Police Station-Shastri Nagar",
  "area": "Koprali Road",
  "district": "Jaipur",
  "state": "Rajasthan",
  "pincode": "",
  "latitude": "26.93804",
  "longitude": "75.80215",
  "qr": "http://res.cloudinary.com/ddhncnedj/image/upload/v1698247750/rbuqewsrzf4vg3cn5379.png",
  "population": 0,
  "latitudes": null,
  "longitudes": null
},
{
  "_id": {
    "$oid": "6539279ee0265e4af914b92d"
  },
  "name": "Police Thana-Tattarpur",
  "area": "Gidc Road",
  "district": "Alwar",
  "state": "Rajasthan",
  "pincode": "396191",
  "latitude": "27.76093",
  "longitude": "76.51826",
  "qr": "http://res.cloudinary.com/ddhncnedj/image/upload/v1698247750/d2p7lhvdk6fyt8t1disn.png",
  "population": 0,
  "latitudes": null,
  "longitudes": null
},
{
  "_id": {
    "$oid": "6539279ee0265e4af914b92e"
  },
  "name": "Police Station-Kenchiyan",
  "area": "Savli Halol Road",
  "district": "Ganganagar",
  "state": "Rajasthan",
  "pincode": "389350",
  "latitude": "29.61902",
  "longitude": "73.87554",
  "qr": "http://res.cloudinary.com/ddhncnedj/image/upload/v1698247752/muc9diw3smxycqmmpzuf.png",
  "population": 0,
  "latitudes": null,
  "longitudes": null
},
{
  "_id": {
    "$oid": "6539279ee0265e4af914b92f"
  },
  "name": "Police Station-Mahua",
  "area": "Gidc",
  "district": "Dausa",
  "state": "Rajasthan",
  "pincode": "",
  "latitude": "27.0476557174",
  "longitude": "76.9266424465",
  "qr": "http://res.cloudinary.com/ddhncnedj/image/upload/v1698247749/rbeckemlei25ilgnaf5l.png",
  "population": 0,
  "latitudes": null,
  "longitudes": null
},
{
  "_id": {
    "$oid": "6539279ee0265e4af914b930"
  },
  "name": "Police Station-Dovada",
  "area": "Gidc",
  "district": "Dungarpur",
  "state": "Rajasthan",
  "pincode": "382305",
  "latitude": "23.86066",
  "longitude": "73.85476",
  "qr": "http://res.cloudinary.com/ddhncnedj/image/upload/v1698247752/ftrhvpkxpwybv02jr0eh.png",
  "population": 0,
  "latitudes": null,
  "longitudes": null
},
{
  "_id": {
    "$oid": "6539279ee0265e4af914b931"
  },
  "name": "Moti Dungri Police Station",
  "area": "Bhavnagar Road",
  "district": "Jaipur",
  "state": "Rajasthan",
  "pincode": "360002",
  "latitude": "26.899292",
  "longitude": "75.823184",
  "qr": "http://res.cloudinary.com/ddhncnedj/image/upload/v1698247752/cvnqifg5szix1yvr0tfk.png",
  "population": 0,
  "latitudes": null,
  "longitudes": null
},
{
  "_id": {
    "$oid": "6539279ee0265e4af914b932"
  },
  "name": "Central jail Beawar",
  "area": "Adajan Hajira Road",
  "district": "Ajmer",
  "state": "Rajasthan",
  "pincode": "",
  "latitude": "26.1",
  "longitude": "74.32",
  "qr": "http://res.cloudinary.com/ddhncnedj/image/upload/v1698247748/yoibweqovbxq7j7y6kg9.png",
  "population": 0,
  "latitudes": null,
  "longitudes": null
},
{
  "_id": {
    "$oid": "6539279ee0265e4af914b933"
  },
  "name": "Police Station-Baghana",
  "area": "Hazira Road",
  "district": "Pratapgarh",
  "state": "Rajasthan",
  "pincode": "",
  "latitude": "24.4475595",
  "longitude": "74.8390926",
  "qr": "http://res.cloudinary.com/ddhncnedj/image/upload/v1698247751/tohjrl0hia67plevod7k.png",
  "population": 0,
  "latitudes": null,
  "longitudes": null
},
{
  "_id": {
    "$oid": "6539279ee0265e4af914b935"
  },
  "name": "Police Station Raniwara",
  "area": "Ankleshwar Civil Court",
  "district": "Jalor",
  "state": "Rajasthan",
  "pincode": "393001",
  "latitude": "24.75078",
  "longitude": "72.20537",
  "qr": "http://res.cloudinary.com/ddhncnedj/image/upload/v1698247749/mgt3ojyjw5apttavb1fy.png",
  "population": 0,
  "latitudes": null,
  "longitudes": null
},
{
  "_id": {
    "$oid": "6539279ee0265e4af914b936"
  },
  "name": "Police Station-Moklsar",
  "area": "Civil Road",
  "district": "Barmer",
  "state": "Rajasthan",
  "pincode": "",
  "latitude": "25.61257",
  "longitude": "72.51567",
  "qr": "http://res.cloudinary.com/ddhncnedj/image/upload/v1698247746/bnuv0aaawimpjurxczqn.png",
  "population": 0,
  "latitudes": null,
  "longitudes": null
},
{
  "_id": {
    "$oid": "6539279ee0265e4af914b938"
  },
  "name": "Police Station-Nayapura",
  "area": "Bakor Road",
  "district": "Kota",
  "state": "Rajasthan",
  "pincode": "",
  "latitude": "25.19414",
  "longitude": "75.85326",
  "qr": "http://res.cloudinary.com/ddhncnedj/image/upload/v1698247749/ebhfsfj3aydke9zt1tqo.png",
  "population": 0,
  "latitudes": null,
  "longitudes": null
},
{
  "_id": {
    "$oid": "6539279ee0265e4af914b939"
  },
  "name": "Police Station-Sadar",
  "area": "SH-5",
  "district": "Dhaulpur",
  "state": "Rajasthan",
  "pincode": "",
  "latitude": "26.73233",
  "longitude": "77.89786",
  "qr": "http://res.cloudinary.com/ddhncnedj/image/upload/v1698247750/okhxawpzkytxosz0eb88.png",
  "population": 0,
  "latitudes": null,
  "longitudes": null
},
{
  "_id": {
    "$oid": "6539279ee0265e4af914b93a"
  },
  "name": "Police Station-Kotputli",
  "area": "Sri Chamunda",
  "district": "Jaipur",
  "state": "Rajasthan",
  "pincode": "396001",
  "latitude": "27.7005419",
  "longitude": "76.1998786",
  "qr": "http://res.cloudinary.com/ddhncnedj/image/upload/v1698247750/uqzcdogbl0eurklmglbs.png",
  "population": 0,
  "latitudes": null,
  "longitudes": null
},
{
  "_id": {
    "$oid": "6539279ee0265e4af914b93b"
  },
  "name": "Central Jail Ghat Gate",
  "area": "Porbandar Airport Road",
  "district": "Jaipur",
  "state": "Rajasthan",
  "pincode": "",
  "latitude": "26.91396",
  "longitude": "75.83297",
  "qr": "http://res.cloudinary.com/ddhncnedj/image/upload/v1698247748/qgdef7oglopygbf8v2nd.png",
  "population": 0,
  "latitudes": null,
  "longitudes": null
},
{
  "_id": {
    "$oid": "6539279ee0265e4af914b93c"
  },
  "name": "Police Station",
  "area": "Station Road",
  "district": "Bhilwara",
  "state": "Rajasthan",
  "pincode": "",
  "latitude": "25.732783",
  "longitude": "74.334844",
  "qr": "http://res.cloudinary.com/ddhncnedj/image/upload/v1698247748/gbo151td7kku6w5qzdvv.png",
  "population": 0,
  "latitudes": null,
  "longitudes": null
},
{
  "_id": {
    "$oid": "6539279ee0265e4af914b93d"
  },
  "name": "Police Chauki,Gudha Katla",
  "area": "Bhagatsinh Road",
  "district": "Dausa",
  "state": "Rajasthan",
  "pincode": "",
  "latitude": "27.0557378",
  "longitude": "76.4731045",
  "qr": "http://res.cloudinary.com/ddhncnedj/image/upload/v1698247748/p4kxusaes92yfpkgqzaa.png",
  "population": 0,
  "latitudes": null,
  "longitudes": null
},
{
  "_id": {
    "$oid": "6539279ee0265e4af914b93f"
  },
  "name": "Police Station-Arai",
  "area": "Sachin GIDC Road 6",
  "district": "Ajmer",
  "state": "Rajasthan",
  "pincode": "",
  "latitude": "26.44878",
  "longitude": "75.0418",
  "qr": "http://res.cloudinary.com/ddhncnedj/image/upload/v1698247752/a8zzuj37quswdpbgkehy.png",
  "population": 0,
  "latitudes": null,
  "longitudes": null
},
{
  "_id": {
    "$oid": "6539279ee0265e4af914b940"
  },
  "name": "Mahila Police Thana-Sirohi",
  "area": "Nh15",
  "district": "Sirohi",
  "state": "Rajasthan",
  "pincode": "",
  "latitude": "24.8789",
  "longitude": "72.86738",
  "qr": "http://res.cloudinary.com/ddhncnedj/image/upload/v1698247750/teo7k6ddh7acwdxdj5kw.png",
  "population": 0,
  "latitudes": null,
  "longitudes": null
},
{
  "_id": {
    "$oid": "6539279ee0265e4af914b941"
  },
  "name": "Kalwad Bypass Police Chowki",
  "area": "Khodiyar Colony",
  "district": "Jaipur",
  "state": "Rajasthan",
  "pincode": "",
  "latitude": "26.945786",
  "longitude": "75.731611",
  "qr": "http://res.cloudinary.com/ddhncnedj/image/upload/v1698247752/jajpv2r9rgcgpaslpqfj.png",
  "population": 0,
  "latitudes": null,
  "longitudes": null
},
{
  "_id": {
    "$oid": "6539279ee0265e4af914b942"
  },
  "name": "Subhash Chowk Police Station",
  "area": "Bulakhidas Road",
  "district": "Jaipur",
  "state": "Rajasthan",
  "pincode": "",
  "latitude": "26.9295260743",
  "longitude": "75.831794191",
  "qr": "http://res.cloudinary.com/ddhncnedj/image/upload/v1698247748/yzqoze1fwh3ynexrelve.png",
  "population": 0,
  "latitudes": null,
  "longitudes": null
},
{
  "_id": {
    "$oid": "6539279ee0265e4af914b943"
  },
  "name": "Jagatpura Police Chowki",
  "area": "Canal Road",
  "district": "Jaipur",
  "state": "Rajasthan",
  "pincode": "",
  "latitude": "26.836395",
  "longitude": "75.835377",
  "qr": "http://res.cloudinary.com/ddhncnedj/image/upload/v1698247748/xabrcbkhu3n2bwww10dp.png",
  "population": 0,
  "latitudes": null,
  "longitudes": null
},
{
  "_id": {
    "$oid": "6539279ee0265e4af914b944"
  },
  "name": "Udyog Nagar Police Station",
  "area": "SH-10",
  "district": "Bharatpur",
  "state": "Rajasthan",
  "pincode": "",
  "latitude": "27.244294",
  "longitude": "77.503589",
  "qr": "http://res.cloudinary.com/ddhncnedj/image/upload/v1698247750/q1y0gcljtcsathgpyvwh.png",
  "population": 0,
  "latitudes": null,
  "longitudes": null
},
{
  "_id": {
    "$oid": "6539279ee0265e4af914b945"
  },
  "name": "Malviya Nagar Police Station",
  "area": "SH-10",
  "district": "Jaipur",
  "state": "Rajasthan",
  "pincode": "",
  "latitude": "26.857377",
  "longitude": "75.815745",
  "qr": "http://res.cloudinary.com/ddhncnedj/image/upload/v1698247751/p3scrt15y4xqtf7bmjdo.png",
  "population": 0,
  "latitudes": null,
  "longitudes": null
},
{
  "_id": {
    "$oid": "6539279ee0265e4af914b946"
  },
  "name": "Police Thana",
  "area": "NH-51",
  "district": "Jhunjhunun",
  "state": "Rajasthan",
  "pincode": "",
  "latitude": "28.343976",
  "longitude": "75.296058",
  "qr": "http://res.cloudinary.com/ddhncnedj/image/upload/v1698247748/lbxsdqxjbg1dskxj4d09.png",
  "population": 0,
  "latitudes": null,
  "longitudes": null
},
{
  "_id": {
    "$oid": "6539279ee0265e4af914b947"
  },
  "name": "Nakash Gate Nagaur Police Thana",
  "area": "Karmavir Nagar",
  "district": "Nagaur",
  "state": "Rajasthan",
  "pincode": "",
  "latitude": "27.2008024501",
  "longitude": "73.7311414999",
  "qr": "http://res.cloudinary.com/ddhncnedj/image/upload/v1698247748/eptujh8as8aia1moihc3.png",
  "population": 0,
  "latitudes": null,
  "longitudes": null
},
{
  "_id": {
    "$oid": "6539279ee0265e4af914b949"
  },
  "name": "Police Station-Gharsana",
  "area": "Kasor Road",
  "district": "Ganganagar",
  "state": "Rajasthan",
  "pincode": "",
  "latitude": "28.98909743",
  "longitude": "73.02924638",
  "qr": "http://res.cloudinary.com/ddhncnedj/image/upload/v1698247750/rvjbph59rdxh05xrsoe8.png",
  "population": 0,
  "latitudes": null,
  "longitudes": null
},
{
  "_id": {
    "$oid": "6539279ee0265e4af914b94a"
  },
  "name": "Police Station-Vishwakarma",
  "area": "Sant Surdas Road",
  "district": "Jaipur",
  "state": "Rajasthan",
  "pincode": "",
  "latitude": "26.97835",
  "longitude": "75.77397",
  "qr": "http://res.cloudinary.com/ddhncnedj/image/upload/v1698247745/pm8xo1xssv0ejpqvsmz5.png",
  "population": 0,
  "latitudes": null,
  "longitudes": null
},
{
  "_id": {
    "$oid": "6539279ee0265e4af914b94b"
  },
  "name": "Kekri Police Station",
  "area": "Gurunathan Mandir",
  "district": "Ajmer",
  "state": "Rajasthan",
  "pincode": "",
  "latitude": "25.973308",
  "longitude": "75.15166",
  "qr": "http://res.cloudinary.com/ddhncnedj/image/upload/v1698247744/feu5kll3kqv2igf8whbk.png",
  "population": 0,
  "latitudes": null,
  "longitudes": null
},
{
  "_id": {
    "$oid": "6539279ee0265e4af914b94c"
  },
  "name": "Kherwara Police Station",
  "area": "Sh189",
  "district": "Udaipur",
  "state": "Rajasthan",
  "pincode": "",
  "latitude": "23.984616",
  "longitude": "73.596251",
  "qr": "http://res.cloudinary.com/ddhncnedj/image/upload/v1698247748/qqjqvqjyqnr9icgccjto.png",
  "population": 0,
  "latitudes": null,
  "longitudes": null
},
{
  "_id": {
    "$oid": "6539279ee0265e4af914b94d"
  },
  "name": "Police Station Kotwali Jalore",
  "area": "NH147D",
  "district": "Jalor",
  "state": "Rajasthan",
  "pincode": "",
  "latitude": "25.3468185104",
  "longitude": "72.6335334778",
  "qr": "http://res.cloudinary.com/ddhncnedj/image/upload/v1698247750/evnoxe4dqeedjutup1ox.png",
  "population": 0,
  "latitudes": null,
  "longitudes": null
},
{
  "_id": {
    "$oid": "6539279ee0265e4af914b94f"
  },
  "name": "Police Station-Nimera",
  "area": "Kothariya Main Road",
  "district": "Jaipur",
  "state": "Rajasthan",
  "pincode": "",
  "latitude": "26.5022",
  "longitude": "75.51539",
  "qr": "http://res.cloudinary.com/ddhncnedj/image/upload/v1698247749/flrpwjrkqwgmn5vaaqjy.png",
  "population": 0,
  "latitudes": null,
  "longitudes": null
},
{
  "_id": {
    "$oid": "6539279ee0265e4af914b950"
  },
  "name": "Hanuman Nagar Thana",
  "area": "Narol Naroda Road",
  "district": "Bhilwara",
  "state": "Rajasthan",
  "pincode": "",
  "latitude": "25.743771",
  "longitude": "75.39497",
  "qr": "http://res.cloudinary.com/ddhncnedj/image/upload/v1698247746/ebrkcjkk9tvlahjtm2hr.png",
  "population": 0,
  "latitudes": null,
  "longitudes": null
},
{
  "_id": {
    "$oid": "6539279ee0265e4af914b951"
  },
  "name": "Police Station-Tapukara",
  "area": "Rangapur Road",
  "district": "Alwar",
  "state": "Rajasthan",
  "pincode": "",
  "latitude": "28.1120387501",
  "longitude": "76.8321114",
  "qr": "http://res.cloudinary.com/ddhncnedj/image/upload/v1698247743/vxcycmshr3c556ij0llv.png",
  "population": 0,
  "latitudes": null,
  "longitudes": null
},
{
  "_id": {
    "$oid": "6539279ee0265e4af914b952"
  },
  "name": "Police Thana Mandawari",
  "area": "Amraiwadi Village Road",
  "district": "Dausa",
  "state": "Rajasthan",
  "pincode": "",
  "latitude": "26.486042",
  "longitude": "76.43765",
  "qr": "http://res.cloudinary.com/ddhncnedj/image/upload/v1698247745/y5llfzt69fi3pctkirqa.png",
  "population": 0,
  "latitudes": null,
  "longitudes": null
},
{
  "_id": {
    "$oid": "6539279ee0265e4af914b953"
  },
  "name": "Police Chowki-Badanpura",
  "area": "Ghodasar Road",
  "district": "Jaipur",
  "state": "Rajasthan",
  "pincode": "",
  "latitude": "26.93638",
  "longitude": "75.84318",
  "qr": "http://res.cloudinary.com/ddhncnedj/image/upload/v1698247752/txbtqgxwplg7wlmsptvu.png",
  "population": 0,
  "latitudes": null,
  "longitudes": null
},
{
  "_id": {
    "$oid": "6539279ee0265e4af914b954"
  },
  "name": "Police Station-Mount Abu",
  "area": "Ranpur 382245",
  "district": "Sirohi",
  "state": "Rajasthan",
  "pincode": "",
  "latitude": "24.5897618",
  "longitude": "72.7130451667",
  "qr": "http://res.cloudinary.com/ddhncnedj/image/upload/v1698247745/m4yvdr7v87varlchmcn3.png",
  "population": 0,
  "latitudes": null,
  "longitudes": null
},
{
  "_id": {
    "$oid": "6539279ee0265e4af914b956"
  },
  "name": "Police Station-Pratap Nagar",
  "area": "Gotri To Sindhrot Road",
  "district": "Udaipur",
  "state": "Rajasthan",
  "pincode": "",
  "latitude": "24.58934",
  "longitude": "73.74595",
  "qr": "http://res.cloudinary.com/ddhncnedj/image/upload/v1698247747/x8jtf7mzi5wml84vmniy.png",
  "population": 0,
  "latitudes": null,
  "longitudes": null
},
{
  "_id": {
    "$oid": "6539279ee0265e4af914b957"
  },
  "name": "Police Chowki-Chaturbhuj",
  "area": "S K Chaudhari Marg",
  "district": "Jaipur",
  "state": "Rajasthan",
  "pincode": "",
  "latitude": "27.7006",
  "longitude": "76.24276",
  "qr": "http://res.cloudinary.com/ddhncnedj/image/upload/v1698247749/ng5xudcztunsjyxvwnvg.png",
  "population": 0,
  "latitudes": null,
  "longitudes": null
},
{
  "_id": {
    "$oid": "6539279ee0265e4af914b958"
  },