[{
  "_id":  "6539279ee0265e4af914b846",
  "name": "Police Station-Limbdi",
  "area": "SH-62",
  "district": "Godhra",
  "state": "Gujarat",
  "pincode": "389180",
  "latitude": "23.05244",
  "longitude": "74.30577",
  "qr": "http://res.cloudinary.com/ddhncnedj/image/upload/v1698247743/umwedjib3moa3xgd7edv.png",
  "population": 131913
},
{
  "_id":  "6539279ee0265e4af914b847",
  "name": "Varachha Police Station",
  "area": "Varachha Road",
  "district": "Surat",
  "state": "Gujarat",
  "pincode": "395006",
  "latitude": "21.209634223",
  "longitude": "72.849761241",
  "qr": "http://res.cloudinary.com/ddhncnedj/image/upload/v1698247742/ygvgnzdl60g4vgak7acl.png",
  "population": 4591246
},
{
  "_id":  "6539279ee0265e4af914b848",
  "name": "Police Station-Rander",
  "area": "Khidmat Nagar",
  "district": "Surat",
  "state": "Gujarat",
  "pincode": "395005",
  "latitude": "21.218334045",
  "longitude": "72.7945853",
  "qr": "http://res.cloudinary.com/ddhncnedj/image/upload/v1698247742/vrclrypbcngep4xskiys.png",
  "population": 4591246
},
{
  "_id":  "6539279ee0265e4af914b849",
  "name": "Gayakwad Haveli",
  "area": "Gaikwad Haveli",
  "district": "Ahmedabad",
  "state": "Gujarat",
  "pincode": "380001",
  "latitude": "23.01599",
  "longitude": "72.5809",
  "qr": "http://res.cloudinary.com/ddhncnedj/image/upload/v1698247749/br0osfhrsnn422nplew8.png",
  "population": 6357693
},
{
  "_id":  "6539279ee0265e4af914b84a",
  "name": "Amroli Police Station",
  "area": "Surat",
  "district": "Surat",
  "state": "Gujarat",
  "pincode": "394107",
  "latitude": "21.2475467002",
  "longitude": "72.8515746286",
  "qr": "http://res.cloudinary.com/ddhncnedj/image/upload/v1698247743/kqdlhm5y2s7y5foidlqv.png",
  "population": 4591246
},
{
  "_id":  "6539279ee0265e4af914b84b",
  "name": "Chhaya Police Chowki",
  "area": "Indra Gandhi Marg Chhaya",
  "district": "Porbandar",
  "state": "Gujarat",
  "pincode": "Porbandar 360578",
  "latitude": "21.628061",
  "longitude": "69.634724",
  "qr": "http://res.cloudinary.com/ddhncnedj/image/upload/v1698247747/jgep6rezecubvrgi0l0p.png",
  "population": 138872
},
{
  "_id":  "6539279ee0265e4af914b84c",
  "name": "Rustam Pura Police Chowki",
  "area": "Hazrat Akbar Shahid Tekra",
  "district": "Surat",
  "state": "Gujarat",
  "pincode": "395002",
  "latitude": "21.1889940231",
  "longitude": "72.8330562923",
  "qr": "http://res.cloudinary.com/ddhncnedj/image/upload/v1698247742/dsalhjhlccy9iq2104vv.png",
  "population": 4591246
},
{
  "_id":  "6539279ee0265e4af914b84d",
  "name": "Chhapi Police Station",
  "area": "Vadgam 385210",
  "district": "Dhanera",
  "state": "Gujarat",
  "pincode": "Vadgam 385210",
  "latitude": "24.02959",
  "longitude": "72.39973",
  "qr": "http://res.cloudinary.com/ddhncnedj/image/upload/v1698247742/rzjo3vc8nt3zoanp7tgo.png",
  "population": 23656
},
{
  "_id":  "6539279ee0265e4af914b84e",
  "name": "Sachin Police Station",
  "area": "SH 6",
  "district": "Surat",
  "state": "Gujarat",
  "pincode": "394230",
  "latitude": "21.086984",
  "longitude": "72.881619",
  "qr": "http://res.cloudinary.com/ddhncnedj/image/upload/v1698247749/vsb7ajzvg6ihwdkpienj.png",
  "population": 4591246
},
{
  "_id":  "6539279ee0265e4af914b84f",
  "name": "Naroda Police Station",
  "area": "Naroda Road",
  "district": "Ahmedabad",
  "state": "Gujarat",
  "pincode": "382330",
  "latitude": "23.098269",
  "longitude": "72.667129",
  "qr": "http://res.cloudinary.com/ddhncnedj/image/upload/v1698247742/dhxgsbiajphbpjamigp5.png",
  "population": 6357693
},
{
  "_id":  "6539279ee0265e4af914b850",
  "name": "Naroda Police Check Post",
  "area": "Ahmedabad",
  "district": "Ahmedabad",
  "state": "Gujarat",
  "pincode": "382330",
  "latitude": "23.064274",
  "longitude": "72.643332",
  "qr": "http://res.cloudinary.com/ddhncnedj/image/upload/v1698247749/m91gbqu5x0a0plnfarro.png",
  "population": 6357693
},
{
  "_id":  "6539279ee0265e4af914b851",
  "name": "Zila Police Adhikari Kachahery",
  "area": "Hariyana Plot 119",
  "district": "Bhavnagar",
  "state": "Gujarat",
  "pincode": "364001",
  "latitude": "21.769171",
  "longitude": "72.15039",
  "qr": "http://res.cloudinary.com/ddhncnedj/image/upload/v1698247742/rrdcwf7optvpnf1cwrth.png",
  "population": 605882
},
{
  "_id":  "6539279ee0265e4af914b852",
  "name": "Police Station-Suigam",
  "area": "SH-127",
  "district": "Dhanera",
  "state": "Gujarat",
  "pincode": "385570",
  "latitude": "24.15644156",
  "longitude": "71.35487701",
  "qr": "http://res.cloudinary.com/ddhncnedj/image/upload/v1698247743/opx4b7hcqddh1qytn3lt.png",
  "population": 23656
},
{
  "_id":  "6539279ee0265e4af914b853",
  "name": "Police Station-Bantwa",
  "area": "Bantwa Pajod Road",
  "district": "Keshod",
  "state": "Gujarat",
  "pincode": "362620",
  "latitude": "21.49081",
  "longitude": "70.07472",
  "qr": "http://res.cloudinary.com/ddhncnedj/image/upload/v1698247743/k9kc1dubtjo2xm4iyku6.png",
  "population": 68518
},
{
  "_id":  "6539279ee0265e4af914b854",
  "name": "Mahila Police Station",
  "area": "Mithakhali",
  "district": "Ahmedabad",
  "state": "Gujarat",
  "pincode": "India",
  "latitude": "23.0315661",
  "longitude": "72.5640245",
  "qr": "http://res.cloudinary.com/ddhncnedj/image/upload/v1698247742/wxwmccuxystgstjy5zeg.png",
  "population": 6357693
},
{
  "_id":  "6539279ee0265e4af914b855",
  "name": "Police Station-Bodeli",
  "area": "Sankheda",
  "district": "Jetpur",
  "state": "Gujarat",
  "pincode": "India",
  "latitude": "22.2714679067",
  "longitude": "73.71647983",
  "qr": "http://res.cloudinary.com/ddhncnedj/image/upload/v1698247743/yruw7gkcylbk7punodhl.png",
  "population": 8446
},
{
  "_id":  "6539279ee0265e4af914b856",
  "name": "Samta Police Chowki",
  "area": "Samta Road",
  "district": "Vadodara",
  "state": "Gujarat",
  "pincode": "390003",
  "latitude": "22.32432",
  "longitude": "73.148399",
  "qr": "http://res.cloudinary.com/ddhncnedj/image/upload/v1698247742/pfe1d1nwp9rquambmauo.png",
  "population": 1822221
},
{
  "_id":  "6539279ee0265e4af914b857",
  "name": "SRP GP  9 Makarpura Rod Vadodara",
  "area": "Vadodara",
  "district": "Vadodara",
  "state": "Gujarat",
  "pincode": "India",
  "latitude": "22.2615544896",
  "longitude": "73.2003408029",
  "qr": "http://res.cloudinary.com/ddhncnedj/image/upload/v1698247743/dsf9emuao7fwdflik8xc.png",
  "population": 1822221
},
{
  "_id":  "6539279ee0265e4af914b858",
  "name": "Bhavnagar Police",
  "area": "DSP office",
  "district": "Bhavnagar",
  "state": "Gujarat",
  "pincode": "364001",
  "latitude": "21.7704391",
  "longitude": "72.1423721",
  "qr": "http://res.cloudinary.com/ddhncnedj/image/upload/v1698247743/u9di2l0xd9nmllronuyr.png",
  "population": 605882
},
{
  "_id":  "6539279ee0265e4af914b859",
  "name": "Limbayat Police Station",
  "area": "Rustam Bagh Road",
  "district": "Surat",
  "state": "Gujarat",
  "pincode": "394210",
  "latitude": "21.175923",
  "longitude": "72.856863",
  "qr": "http://res.cloudinary.com/ddhncnedj/image/upload/v1698247743/czsiueyav22shcrwrhri.png",
  "population": 4591246
},
{
  "_id":  "6539279ee0265e4af914b85a",
  "name": "Police Station Bapunagar",
  "area": "Opposite Siddhi Vinayk Ganesh Mandir",
  "district": "Ahmedabad",
  "state": "Gujarat",
  "pincode": "380024",
  "latitude": "23.03247",
  "longitude": "72.631441",
  "qr": "http://res.cloudinary.com/ddhncnedj/image/upload/v1698247743/ebq5lktlsrzelauszxzb.png",
  "population": 6357693
},
{
  "_id":  "6539279ee0265e4af914b85b",
  "name": "Police Chawki",
  "area": "Radhanpur 385340",
  "district": "Dhanera",
  "state": "Gujarat",
  "pincode": "Radhanpur 385340",
  "latitude": "23.833967",
  "longitude": "71.605517",
  "qr": "http://res.cloudinary.com/ddhncnedj/image/upload/v1698247748/ajenaluzd9zmhuuj3vt8.png",
  "population": 23656
},
{
  "_id":  "6539279ee0265e4af914b85c",
  "name": "Katargam Police Station",
  "area": "Surat",
  "district": "Surat",
  "state": "Gujarat",
  "pincode": "395004",
  "latitude": "21.2233324672",
  "longitude": "72.8331131745",
  "qr": "http://res.cloudinary.com/ddhncnedj/image/upload/v1698247742/rzvxzx9ugfdsl8ojskia.png",
  "population": 4591246
},
{
  "_id":  "6539279ee0265e4af914b85d",
  "name": "Police Station-Udepur Road",
  "area": "Devgadh Baria",
  "district": "Godhra",
  "state": "Gujarat",
  "pincode": "389380",
  "latitude": "22.70014",
  "longitude": "73.91466",
  "qr": "http://res.cloudinary.com/ddhncnedj/image/upload/v1698247750/lsarcexpwgkrxlnip4rh.png",
  "population": 131913
},
{
  "_id":  "6539279ee0265e4af914b85e",
  "name": "Paliwal Police Chowky",
  "area": "GIDC",
  "district": "Surat",
  "state": "Gujarat",
  "pincode": "394230",
  "latitude": "21.092055",
  "longitude": "72.862293",
  "qr": "http://res.cloudinary.com/ddhncnedj/image/upload/v1698247742/brdog3zhfv1zz3qzgeyx.png",
  "population": 4591246
},
{
  "_id":  "6539279ee0265e4af914b85f",
  "name": "Police Station Jamnager",
  "area": "Victoria Bridge Road",
  "district": "Jamnagar",
  "state": "Gujarat",
  "pincode": "Jamnagar 361120",
  "latitude": "22.475959",
  "longitude": "70.095408",
  "qr": "http://res.cloudinary.com/ddhncnedj/image/upload/v1698247742/gss389i7m192ikjpadrh.png",
  "population": 492056
},
{
  "_id":  "6539279ee0265e4af914b860",
  "name": "Police Chowki Malaviya Nagar",
  "area": "Near Maudi Chowkdi",
  "district": "Gondal",
  "state": "Gujarat",
  "pincode": "",
  "latitude": "22.2697801",
  "longitude": "70.788699",
  "qr": "http://res.cloudinary.com/ddhncnedj/image/upload/v1698247743/sfaovsxvfml7efnqkwoj.png",
  "population": 101801
},
{
  "_id":  "6539279ee0265e4af914b861",
  "name": "Police Station-Upleta",
  "area": "Upleta 360490",
  "district": "Jetalsar",
  "state": "Gujarat",
  "pincode": "Upleta 360490",
  "latitude": "21.74757",
  "longitude": "70.27513",
  "qr": "http://res.cloudinary.com/ddhncnedj/image/upload/v1698247743/cmlrgxdglmv8nkxcciti.png",
  "population": 14771
},
{
  "_id":  "6539279ee0265e4af914b862",
  "name": "Police Station-Vansda",
  "area": "Bansda",
  "district": "Chikhli",
  "state": "Gujarat",
  "pincode": "396580",
  "latitude": "20.76203",
  "longitude": "73.36238",
  "qr": "http://res.cloudinary.com/ddhncnedj/image/upload/v1698247743/mzdb9oahklfdkgerypdi.png",
  "population": 7480
},
{
  "_id":  "6539279ee0265e4af914b863",
  "name": "Khokhra Police Station",
  "area": "Ahmedabad",
  "district": "Ahmedabad",
  "state": "Gujarat",
  "pincode": "India",
  "latitude": "23.0013222",
  "longitude": "72.6205328",
  "qr": "http://res.cloudinary.com/ddhncnedj/image/upload/v1698247744/up4rybd77gxw1kcxvrzb.png",
  "population": 6357693
},
{
  "_id":  "6539279ee0265e4af914b864",
  "name": "DSP Office",
  "area": "Swami Narayan Marg",
  "district": "Bhuj",
  "state": "Gujarat",
  "pincode": "Bhuj 370001",
  "latitude": "23.24281",
  "longitude": "69.666435",
  "qr": "http://res.cloudinary.com/ddhncnedj/image/upload/v1698247745/echogn0jrgbdtquh0bzj.png",
  "population": 133459
},
{
  "_id":  "6539279ee0265e4af914b865",
  "name": "Shaher Kotada Police Station",
  "area": "Ahmedabad",
  "district": "Ahmedabad",
  "state": "Gujarat",
  "pincode": "380002",
  "latitude": "23.0333",
  "longitude": "72.6167",
  "qr": "http://res.cloudinary.com/ddhncnedj/image/upload/v1698247747/t5y4d8v6hpaoij2patpo.png",
  "population": 6357693
},
{
  "_id":  "6539279ee0265e4af914b866",
  "name": "Thana-Badhrav Janpadh-Raybareli",
  "area": "NH-24B",
  "district": "Chikhli",
  "state": "Gujarat",
  "pincode": "Bachhrawan 229301",
  "latitude": "26.47015",
  "longitude": "81.11172",
  "qr": "http://res.cloudinary.com/ddhncnedj/image/upload/v1698247748/pzikxfo6tprvelb104ap.png",
  "population": 52841
},
{
  "_id":  "6539279ee0265e4af914b867",
  "name": "Bhachau Police Station",
  "area": "Bhachau 370140",
  "district": "Bhuj",
  "state": "Gujarat",
  "pincode": "Bhachau 370140",
  "latitude": "23.288376",
  "longitude": "70.343934",
  "qr": "http://res.cloudinary.com/ddhncnedj/image/upload/v1698247743/xcfu8jfkboczsbaeuumu.png",
  "population": 133459
},
{
  "_id":  "6539279ee0265e4af914b868",
  "name": "Laskana Police Chowki",
  "area": "Laskana",
  "district": "Surat",
  "state": "Gujarat",
  "pincode": "395013",
  "latitude": "21.251337605",
  "longitude": "72.9277244587",
  "qr": "http://res.cloudinary.com/ddhncnedj/image/upload/v1698247746/pi68c4czrqc5dqg0sp49.png",
  "population": 4591246
},
{
  "_id":  "6539279ee0265e4af914b869",
  "name": "Adazan Police Station",
  "area": "LP Savani Road",
  "district": "Surat",
  "state": "Gujarat",
  "pincode": "395009",
  "latitude": "21.190543",
  "longitude": "72.794617",
  "qr": "http://res.cloudinary.com/ddhncnedj/image/upload/v1698247749/d2ynkvxote4jxzxai0pu.png",
  "population": 4591246
},
{
  "_id":  "6539279ee0265e4af914b86a",
  "name": "Thangadh Police Station",
  "area": "Chotila road",
  "district": "Chotila",
  "state": "Gujarat",
  "pincode": "Thangadh",
  "latitude": "22.58456",
  "longitude": "71.2048",
  "qr": "http://res.cloudinary.com/ddhncnedj/image/upload/v1698247749/oxzbszqkub9xkpbt38qn.png",
  "population": 15197
},
{
  "_id":  "6539279ee0265e4af914b86b",
  "name": "Police Pared Ground , Anand",
  "area": "Anand",
  "district": "Anand",
  "state": "Gujarat",
  "pincode": "",
  "latitude": "22.5427271",
  "longitude": "72.9618235",
  "qr": "http://res.cloudinary.com/ddhncnedj/image/upload/v1698247743/qemhoes0mouurxf6gbnh.png",
  "population": 138009
},
{
  "_id":  "6539279ee0265e4af914b86c",
  "name": "Police Station Kushtagi",
  "area": "SH 30",
  "district": "Chikhli",
  "state": "Gujarat",
  "pincode": "Kushtagi 583277",
  "latitude": "15.752983",
  "longitude": "76.196155",
  "qr": "http://res.cloudinary.com/ddhncnedj/image/upload/v1698247742/apr4ezd4khoeaelmhxsd.png",
  "population": 52841
},
{
  "_id":  "6539279ee0265e4af914b86d",
  "name": "Police Chowki",
  "area": "Jamnagar 361001",
  "district": "Jamnagar",
  "state": "Gujarat",
  "pincode": "Jamnagar 361001",
  "latitude": "22.4642284",
  "longitude": "70.0799917",
  "qr": "http://res.cloudinary.com/ddhncnedj/image/upload/v1698247747/g0p7zrnej0xuoaea0ehk.png",
  "population": 492056
},
{
  "_id":  "6539279ee0265e4af914b86e",
  "name": "Vejalpur Police Chowki",
  "area": "Dr Jivraj Mehta Marg",
  "district": "Ahmedabad",
  "state": "Gujarat",
  "pincode": "380051",
  "latitude": "23.004082",
  "longitude": "72.522669",
  "qr": "http://res.cloudinary.com/ddhncnedj/image/upload/v1698247744/fez5ccg7zvydrf6ay6lb.png",
  "population": 6357693
},
{
  "_id":  "6539279ee0265e4af914b86f",
  "name": "Bhagol Police Station-Naroda",
  "area": "Galaxy Road",
  "district": "Ahmedabad",
  "state": "Gujarat",
  "pincode": "382330",
  "latitude": "23.0747484",
  "longitude": "72.6553748",
  "qr": "http://res.cloudinary.com/ddhncnedj/image/upload/v1698247742/ew2gwslhfj6qal8vz0tf.png",
  "population": 6357693
},
{
  "_id":  "6539279ee0265e4af914b870",
  "name": "Haveli Police Stations",
  "area": "Gaikwad Haveli Road",
  "district": "Ahmedabad",
  "state": "Gujarat",
  "pincode": "380001",
  "latitude": "23.016943",
  "longitude": "72.581002",
  "qr": "http://res.cloudinary.com/ddhncnedj/image/upload/v1698247749/l5ivxb5wtsnym1wjnnrw.png",
  "population": 6357693
},
{
  "_id":  "6539279ee0265e4af914b871",
  "name": "Valsad DSP Office",
  "area": "SH-6",
  "district": "Bilimora",
  "state": "Gujarat",
  "pincode": "Valsad",
  "latitude": "20.60681214",
  "longitude": "72.929547089",
  "qr": "http://res.cloudinary.com/ddhncnedj/image/upload/v1698247749/uhdxmhwfplziwe6a8l5i.png",
  "population": 510879
},
{
  "_id":  "6539279ee0265e4af914b872",
  "name": "Shirpur Rural",
  "area": "Shirpur Chopda Highway",
  "district": "Chikhli",
  "state": "Gujarat",
  "pincode": "Shirpur 425421",
  "latitude": "21.27183",
  "longitude": "75.08679",
  "qr": "http://res.cloudinary.com/ddhncnedj/image/upload/v1698247743/o01loa7tnznii8vpygzl.png",
  "population": 52841
},
{
  "_id":  "6539279ee0265e4af914b873",
  "name": "Police Station-Shirpur",
  "area": "NH-3",
  "district": "Jetpur",
  "state": "Gujarat",
  "pincode": "Shirpur 425405",
  "latitude": "21.346710885",
  "longitude": "74.879744285",
  "qr": "http://res.cloudinary.com/ddhncnedj/image/upload/v1698247749/xlbgcojvkddrrbvydnzk.png",
  "population": 8446
},
{
  "_id":  "6539279ee0265e4af914b874",
  "name": "Police Station-Gandhidham",
  "area": "Gandhidham 370201",
  "district": "Bhuj",
  "state": "Gujarat",
  "pincode": "Gandhidham 370201",
  "latitude": "23.07061",
  "longitude": "70.13524",
  "qr": "http://res.cloudinary.com/ddhncnedj/image/upload/v1698247748/lk4xnepglk5jfqtshi7u.png",
  "population": 133459
},
{
  "_id":  "6539279ee0265e4af914b875",
  "name": "Jarod Outpost Police Station",
  "area": "Vaghodia INA 391510",
  "district": "Vadodara",
  "state": "Gujarat",
  "pincode": "Vaghodia INA 391510",
  "latitude": "22.440342",
  "longitude": "73.337037",
  "qr": "http://res.cloudinary.com/ddhncnedj/image/upload/v1698247743/hzpfuidneuyaslcmub8w.png",
  "population": 1822221
},
{
  "_id":  "6539279ee0265e4af914b876",
  "name": "Vidhyanagar Police Station",
  "area": "Vallabh Vidhyanagar 388121",
  "district": "Anand",
  "state": "Gujarat",
  "pincode": "Vallabh Vidhyanagar 388121",
  "latitude": "22.549759",
  "longitude": "72.932117",
  "qr": "http://res.cloudinary.com/ddhncnedj/image/upload/v1698247746/c9jkr9a886td6b6x6jm4.png",
  "population": 138009
},
{
  "_id":  "6539279ee0265e4af914b877",
  "name": "Adipur Police Station",
  "area": "SH-46",
  "district": "Bhuj",
  "state": "Gujarat",
  "pincode": "Gandhidham 370205",
  "latitude": "23.071502",
  "longitude": "70.076669",
  "qr": "http://res.cloudinary.com/ddhncnedj/image/upload/v1698247742/tfaiajlvc2vhxw8fbptx.png",
  "population": 133459
},
{
  "_id":  "6539279ee0265e4af914b878",
  "name": "Godhra Saher Police Station",
  "area": "Godhra City",
  "district": "Godhra",
  "state": "Gujarat",
  "pincode": "",
  "latitude": "22.77426",
  "longitude": "73.62528",
  "qr": "http://res.cloudinary.com/ddhncnedj/image/upload/v1698247746/imfaguewvkwhcnhpwbeg.png",
  "population": 131913
},
{
  "_id":  "6539279ee0265e4af914b879",
  "name": "Pith Police Chowki",
  "area": "Lal Darwaja Road",
  "district": "Borsad",
  "state": "Gujarat",
  "pincode": "",
  "latitude": "22.31976",
  "longitude": "72.62015",
  "qr": "http://res.cloudinary.com/ddhncnedj/image/upload/v1698247743/lzqxcftbjhimjgxtpeex.png",
  "population": 60271
},
{
  "_id":  "6539279ee0265e4af914b87a",
  "name": "Laxman Nagar Police Satation",
  "area": "Varacha Road",
  "district": "Surat",
  "state": "Gujarat",
  "pincode": "",
  "latitude": "21.20938",
  "longitude": "72.84959",
  "qr": "http://res.cloudinary.com/ddhncnedj/image/upload/v1698247742/ai060kwl71pw4s9ab59j.png",
  "population": 4591246
},
{
  "_id":  "6539279ee0265e4af914b87b",
  "name": "Jivraj Park Police Chowki",
  "area": "132 Feet Road",
  "district": "Ahmedabad",
  "state": "Gujarat",
  "pincode": "380051",
  "latitude": "23.00078",
  "longitude": "72.53557",
  "qr": "http://res.cloudinary.com/ddhncnedj/image/upload/v1698247752/e0bw8pzg6w7c9harekuv.png",
  "population": 6357693
},
{
  "_id":  "6539279ee0265e4af914b87c",
  "name": "Police Station Bhavnagar",
  "area": "Jail Road",
  "district": "Bhavnagar",
  "state": "Gujarat",
  "pincode": "",
  "latitude": "21.7674",
  "longitude": "72.13981",
  "qr": "http://res.cloudinary.com/ddhncnedj/image/upload/v1698247749/y763jlulrjt7wed36jfa.png",
  "population": 605882
},
{
  "_id":  "6539279ee0265e4af914b87d",
  "name": "Bhavnagar Police Station",
  "area": "Bus Station Road",
  "district": "Bhavnagar",
  "state": "Gujarat",
  "pincode": "",
  "latitude": "21.76926",
  "longitude": "72.13507",
  "qr": "http://res.cloudinary.com/ddhncnedj/image/upload/v1698247751/eykmofptvrbuni3f1tho.png",
  "population": 605882
},
{
  "_id":  "6539279ee0265e4af914b87e",
  "name": "Kruti Mandir Police Station",
  "area": "SVP Road",
  "district": "Porbandar",
  "state": "Gujarat",
  "pincode": "360575",
  "latitude": "21.6421",
  "longitude": "69.60506",
  "qr": "http://res.cloudinary.com/ddhncnedj/image/upload/v1698247742/rfzk6hnwosvgpmcvhgxe.png",
  "population": 138872
},
{
  "_id":  "6539279ee0265e4af914b87f",
  "name": "Sanand Police Station",
  "area": "SH-17",
  "district": "Ahmedabad",
  "state": "Gujarat",
  "pincode": "382110",
  "latitude": "22.98796",
  "longitude": "72.38623",
  "qr": "http://res.cloudinary.com/ddhncnedj/image/upload/v1698247743/tsjc69meombkkflg8sv5.png",
  "population": 6357693
},
{
  "_id":  "6539279ee0265e4af914b880",
  "name": "Police Station Kalavad",
  "area": "Dhoraji Road",
  "district": "Dhrol",
  "state": "Gujarat",
  "pincode": "",
  "latitude": "22.19704",
  "longitude": "70.38424",
  "qr": "http://res.cloudinary.com/ddhncnedj/image/upload/v1698247744/a4bjvcjyk3sv54xtbluk.png",
  "population": 26496
},
{
  "_id":  "6539279ee0265e4af914b881",
  "name": "Visnagar Police Station",
  "area": "SH-130",
  "district": "Himatnagar",
  "state": "Gujarat",
  "pincode": "",
  "latitude": "23.70634",
  "longitude": "72.54094",
  "qr": "http://res.cloudinary.com/ddhncnedj/image/upload/v1698247746/e2heoi19ppfrwrzkcxve.png",
  "population": 60634
},
{
  "_id":  "6539279ee0265e4af914b882",
  "name": "Visnagar Police Station",
  "area": "Sh130",
  "district": "Himatnagar",
  "state": "Gujarat",
  "pincode": "",
  "latitude": "23.69721",
  "longitude": "72.55261",
  "qr": "http://res.cloudinary.com/ddhncnedj/image/upload/v1698247742/eltop2uurgidymf0plbl.png",
  "population": 60634
},
{
  "_id":  "6539279ee0265e4af914b883",
  "name": "Vijapur Police Chowki",
  "area": "Main Road",
  "district": "Amod",
  "state": "Gujarat",
  "pincode": "392001",
  "latitude": "21.69093",
  "longitude": "72.97616",
  "qr": "http://res.cloudinary.com/ddhncnedj/image/upload/v1698247750/g3hciwncijqgxdfwxwp1.png",
  "population": 18742
},
{
  "_id":  "6539279ee0265e4af914b884",
  "name": "Mehsana Police Station",
  "area": "Station Road",
  "district": "Kadi",
  "state": "Gujarat",
  "pincode": "384001",
  "latitude": "23.60309",
  "longitude": "72.39193",
  "qr": "http://res.cloudinary.com/ddhncnedj/image/upload/v1698247750/qxyghma7xb8xwc3mltok.png",
  "population": 58066
},
{
  "_id":  "6539279ee0265e4af914b885",
  "name": "Karjan Police Station",
  "area": "Ranjit Nagar",
  "district": "Amod",
  "state": "Gujarat",
  "pincode": "",
  "latitude": "22.05427",
  "longitude": "73.11276",
  "qr": "http://res.cloudinary.com/ddhncnedj/image/upload/v1698247752/ktg2t66kgdjw7nnpqtdy.png",
  "population": 18742
},
{
  "_id":  "6539279ee0265e4af914b886",
  "name": "Dabhoi Police Station",
  "area": "Station Road",
  "district": "Dabhoi",
  "state": "Gujarat",
  "pincode": "391110",
  "latitude": "22.13784",
  "longitude": "73.41936",
  "qr": "http://res.cloudinary.com/ddhncnedj/image/upload/v1698247749/syywvnwh4fghdihausok.png",
  "population": 56253
},
{
  "_id":  "6539279ee0265e4af914b887",
  "name": "Police Station Dabhoi",
  "area": "Government Hospital Road",
  "district": "Dabhoi",
  "state": "Gujarat",
  "pincode": "391110",
  "latitude": "22.13136",
  "longitude": "73.42573",
  "qr": "http://res.cloudinary.com/ddhncnedj/image/upload/v1698247744/ze3u5wheen93n2vdkit8.png",
  "population": 56253
},
{
  "_id":  "6539279ee0265e4af914b888",
  "name": "Dabhan Chokadi Police Chowki",
  "area": "Narol Naroda Road",
  "district": "Kheda",
  "state": "Gujarat",
  "pincode": "",
  "latitude": "22.70707",
  "longitude": "72.82646",
  "qr": "http://res.cloudinary.com/ddhncnedj/image/upload/v1698247749/u3gpwfptp9liwaqcvrka.png",
  "population": 24767
},
{
  "_id":  "6539279ee0265e4af914b889",
  "name": "Police Station Porbandar",
  "area": "Nh8b",
  "district": "Porbandar",
  "state": "Gujarat",
  "pincode": "",
  "latitude": "21.63929",
  "longitude": "69.62317",
  "qr": "http://res.cloudinary.com/ddhncnedj/image/upload/v1698247748/r4kknajnxx6xw1zwffvw.png",
  "population": 138872
},
{
  "_id":  "6539279ee0265e4af914b88a",
  "name": "Police Station-Porbandar",
  "area": "Swami Dayanand Saraswati Road",
  "district": "Porbandar",
  "state": "Gujarat",
  "pincode": "",
  "latitude": "21.64001",
  "longitude": "69.60552",
  "qr": "http://res.cloudinary.com/ddhncnedj/image/upload/v1698247750/n40neddeudocxg5dylnj.png",
  "population": 138872
},
{
  "_id":  "6539279ee0265e4af914b88b",
  "name": "Porbandar City Police Station",
  "area": "Station Road",
  "district": "Porbandar",
  "state": "Gujarat",
  "pincode": "",
  "latitude": "21.64221",
  "longitude": "69.61426",
  "qr": "http://res.cloudinary.com/ddhncnedj/image/upload/v1698247749/i5dnwd912rtakmlt9faz.png",
  "population": 138872
},
{
  "_id":  "6539279ee0265e4af914b88c",
  "name": "Bhalka Police Chowki",
  "area": "Bhalka Road",
  "district": "Keshod",
  "state": "Gujarat",
  "pincode": "362268",
  "latitude": "20.91047",
  "longitude": "70.37855",
  "qr": "http://res.cloudinary.com/ddhncnedj/image/upload/v1698247744/gfdf6dj3wnuzqg81jfwn.png",
  "population": 68518
},
{
  "_id":  "6539279ee0265e4af914b88d",
  "name": "Mahuva Police Station",
  "area": "Sh35",
  "district": "Dungarpur",
  "state": "Gujarat",
  "pincode": "",
  "latitude": "21.09231",
  "longitude": "71.76921",
  "qr": "http://res.cloudinary.com/ddhncnedj/image/upload/v1698247749/g8xfefvjyxo0xkwfkcfp.png",
  "population": 6105
},
{
  "_id":  "6539279ee0265e4af914b88e",
  "name": "Police Station Raigadh",
  "area": "Raigadh",
  "district": "Himatnagar",
  "state": "Gujarat",
  "pincode": "",
  "latitude": "23.60324",
  "longitude": "73.17978",
  "qr": "http://res.cloudinary.com/ddhncnedj/image/upload/v1698247750/m53tqvmpr3rsqjqqwna5.png",
  "population": 60634
},
{
  "_id":  "6539279ee0265e4af914b88f",
  "name": "Police Station-Bhachau",
  "area": "Nh8a Kutch Road",
  "district": "Bhuj",
  "state": "Gujarat",
  "pincode": "",
  "latitude": "23.28819",
  "longitude": "70.34406",
  "qr": "http://res.cloudinary.com/ddhncnedj/image/upload/v1698247742/fuehovgyxvvndk74jljk.png",
  "population": 133459
},
{
  "_id":  "6539279ee0265e4af914b890",
  "name": "Police Station Bodeli",
  "area": "Bodeli Road",
  "district": "Jetpur",
  "state": "Gujarat",
  "pincode": "",
  "latitude": "22.27145",
  "longitude": "73.71656",
  "qr": "http://res.cloudinary.com/ddhncnedj/image/upload/v1698247748/zhet9kgxu7adsy9zmmtj.png",
  "population": 8446
},
{
  "_id":  "6539279ee0265e4af914b891",
  "name": "Kalwa Chowk Police Chowki",
  "area": "M G Road",
  "district": "Jetalsar",
  "state": "Gujarat",
  "pincode": "",
  "latitude": "21.5138",
  "longitude": "70.46319",
  "qr": "http://res.cloudinary.com/ddhncnedj/image/upload/v1698247750/ffwbdv8qtlllf5xgnq9s.png",
  "population": 14771
},
{
  "_id":  "6539279ee0265e4af914b892",
  "name": "Sheth Wadana Police Station",
  "area": "SH-94",
  "district": "Jamnagar",
  "state": "Gujarat",
  "pincode": "",
  "latitude": "22.03927",
  "longitude": "70.1246",
  "qr": "http://res.cloudinary.com/ddhncnedj/image/upload/v1698247749/zsuvpj27gjjlwit7yyl8.png",
  "population": 492056
},
{
  "_id":  "6539279ee0265e4af914b893",
  "name": "Khodiyar Police Station",
  "area": "Swami Vivekanand Road",
  "district": "Ahmedabad",
  "state": "Gujarat",
  "pincode": "",
  "latitude": "23.01733",
  "longitude": "72.59439",
  "qr": "http://res.cloudinary.com/ddhncnedj/image/upload/v1698247742/r71bpqi1hlfx9akfr5ox.png",
  "population": 6357693
},
{
  "_id":  "6539279ee0265e4af914b894",
  "name": "Darbargadh Police Chowki",
  "area": "Aashapura Road",
  "district": "Jamnagar",
  "state": "Gujarat",
  "pincode": "361001",
  "latitude": "22.46456",
  "longitude": "70.07991",
  "qr": "http://res.cloudinary.com/ddhncnedj/image/upload/v1698247743/opddchg95g3gj6m2y58s.png",
  "population": 492056
},
{
  "_id":  "6539279ee0265e4af914b895",
  "name": "Sayla Police Station",
  "area": "Ahmedabad Rajkot Highway",
  "district": "Surendranagar",
  "state": "Gujarat",
  "pincode": "",
  "latitude": "22.53801",
  "longitude": "71.48053",
  "qr": "http://res.cloudinary.com/ddhncnedj/image/upload/v1698247750/o6csujs2tikic87kesu6.png",
  "population": 179628
},
{
  "_id":  "6539279ee0265e4af914b896",
  "name": "Police Station Olpad",
  "area": "Sh6 Surat Road",
  "district": "Surat",
  "state": "Gujarat",
  "pincode": "",
  "latitude": "21.33759",
  "longitude": "72.75098",
  "qr": "http://res.cloudinary.com/ddhncnedj/image/upload/v1698247747/nn22vtmqq6esm7dotynr.png",
  "population": 4591246
},
{
  "_id":  "6539279ee0265e4af914b897",
  "name": "Amroli Police Station",
  "area": "Sayan Road",
  "district": "Surat",
  "state": "Gujarat",
  "pincode": "394107",
  "latitude": "21.23821",
  "longitude": "72.84861",
  "qr": "http://res.cloudinary.com/ddhncnedj/image/upload/v1698247751/k6zccf92jdg1v8zxqpwl.png",
  "population": 4591246
},
{
  "_id":  "6539279ee0265e4af914b898",
  "name": "Amroli Police Station",
  "area": "Amroli Road",
  "district": "Surat",
  "state": "Gujarat",
  "pincode": "394107",
  "latitude": "21.24494",
  "longitude": "72.85113",
  "qr": "http://res.cloudinary.com/ddhncnedj/image/upload/v1698247748/knzuntdjdtv5iwklnoq2.png",
  "population": 4591246
},
{
  "_id":  "6539279ee0265e4af914b899",
  "name": "Amroli Police Station",
  "area": "Amroli Sayan Road",
  "district": "Surat",
  "state": "Gujarat",
  "pincode": "",
  "latitude": "21.26532",
  "longitude": "72.84643",
  "qr": "http://res.cloudinary.com/ddhncnedj/image/upload/v1698247742/h4ofspjtgqezkwncfpha.png",
  "population": 4591246
},
{
  "_id":  "6539279ee0265e4af914b89a",
  "name": "Jhalod Police Station",
  "area": "Jhalod Road",
  "district": "Godhra",
  "state": "Gujarat",
  "pincode": "",
  "latitude": "23.1046",
  "longitude": "74.15825",
  "qr": "http://res.cloudinary.com/ddhncnedj/image/upload/v1698247742/l7qjshpblfgpcwbcem1n.png",
  "population": 131913
},
{
  "_id":  "6539279ee0265e4af914b89b",
  "name": "Gandhidham Police Station",
  "area": "Near Collector Road",
  "district": "Bhuj",
  "state": "Gujarat",
  "pincode": "",
  "latitude": "23.07073",
  "longitude": "70.13519",
  "qr": "http://res.cloudinary.com/ddhncnedj/image/upload/v1698247744/tiw6p99nnfdtwvflb6qb.png",
  "population": 133459
},
{
  "_id":  "6539279ee0265e4af914b89c",
  "name": "Gandhidham Railway Police Station",
  "area": "Station Road",
  "district": "Bhuj",
  "state": "Gujarat",
  "pincode": "",
  "latitude": "23.06894",
  "longitude": "70.14692",
  "qr": "http://res.cloudinary.com/ddhncnedj/image/upload/v1698247749/ccyulqydrjn9jjoiae35.png",
  "population": 133459
},
{
  "_id":  "6539279ee0265e4af914b89d",
  "name": "Gandhidham Division Police Station",
  "area": "Adipur Road",
  "district": "Bhuj",
  "state": "Gujarat",
  "pincode": "",
  "latitude": "23.06345",
  "longitude": "70.12895",
  "qr": "http://res.cloudinary.com/ddhncnedj/image/upload/v1698247747/ao2beyixqlizig2rxog3.png",
  "population": 133459
},
{
  "_id":  "6539279ee0265e4af914b89e",
  "name": "Police Station-Manjal",
  "area": "SH-42",
  "district": "Bhuj",
  "state": "Gujarat",
  "pincode": "370030",
  "latitude": "23.2352",
  "longitude": "69.4035",
  "qr": "http://res.cloudinary.com/ddhncnedj/image/upload/v1698247745/e2pq69sbdougtcaihelq.png",
  "population": 133459
},
{
  "_id":  "6539279ee0265e4af914b89f",
  "name": "Kalikund Police Chowki",
  "area": "NH751",
  "district": "Dholka",
  "state": "Gujarat",
  "pincode": "382225",
  "latitude": "22.7418",
  "longitude": "72.4493",
  "qr": "http://res.cloudinary.com/ddhncnedj/image/upload/v1698247748/s0xx096rdl1oaqglq0zu.png",
  "population": 54977
},
{
  "_id":  "6539279ee0265e4af914b8a0",
  "name": "Lunawada Police Station",
  "area": "SH-5",
  "district": "Godhra",
  "state": "Gujarat",
  "pincode": "",
  "latitude": "23.12537",
  "longitude": "73.60547",
  "qr": "http://res.cloudinary.com/ddhncnedj/image/upload/v1698247748/zeofzs6w6vse3sxobzum.png",
  "population": 131913
},
{
  "_id":  "6539279ee0265e4af914b8a1",
  "name": "Police Station, Lunawada",
  "area": "Nagar Seva Sadan",
  "district": "Godhra",
  "state": "Gujarat",
  "pincode": "",
  "latitude": "23.12596",
  "longitude": "73.60959",
  "qr": "http://res.cloudinary.com/ddhncnedj/image/upload/v1698247751/act4mlrampveq6gww2q9.png",
  "population": 131913
},
{
  "_id":  "6539279ee0265e4af914b8a2",
  "name": "Police Station Kacheri",
  "area": "Near Hospital Road",
  "district": "Bhuj",
  "state": "Gujarat",
  "pincode": "370020",
  "latitude": "23.24711",
  "longitude": "69.67411",
  "qr": "http://res.cloudinary.com/ddhncnedj/image/upload/v1698247744/bstishh0smm8hhiebrbi.png",
  "population": 133459
},
{
  "_id":  "6539279ee0265e4af914b8a3",
  "name": "Kacheri Police Station",
  "area": "Kapadvanj Market",
  "district": "Kapadvanj",
  "state": "Gujarat",
  "pincode": "",
  "latitude": "23.02687",
  "longitude": "73.0683",
  "qr": "http://res.cloudinary.com/ddhncnedj/image/upload/v1698247744/tjw4x7ql6mufckeylshd.png",
  "population": 44764
},
{
  "_id":  "6539279ee0265e4af914b8a4",
  "name": "Mamlatdar Kacheri & Police Station",
  "area": "Lilia Mahal",
  "district": "Amreli",
  "state": "Gujarat",
  "pincode": "",
  "latitude": "21.53799",
  "longitude": "71.36282",
  "qr": "http://res.cloudinary.com/ddhncnedj/image/upload/v1698247751/vusnurmkg5bk4hzjesjf.png",
  "population": 99742
},
{
  "_id":  "6539279ee0265e4af914b8a5",
  "name": "Police Station, Old Sakkar Bag Area",
  "area": "Station Road",
  "district": "Jetalsar",
  "state": "Gujarat",
  "pincode": "362001",
  "latitude": "21.5287",
  "longitude": "70.45879",
  "qr": "http://res.cloudinary.com/ddhncnedj/image/upload/v1698247748/xem6bw1cayzbruyavkgu.png",
  "population": 14771
},
{
  "_id":  "6539279ee0265e4af914b8a6",
  "name": "Rajula Police Station",
  "area": "SH-34",
  "district": "Dungarpur",
  "state": "Gujarat",
  "pincode": "",
  "latitude": "21.03425",
  "longitude": "71.4419",
  "qr": "http://res.cloudinary.com/ddhncnedj/image/upload/v1698247746/fjbywnv6tdbwjuxtzgse.png",
  "population": 6105
},
{
  "_id":  "6539279ee0265e4af914b8a7",
  "name": "Thaltej Police Station",
  "area": "Thaltej Shilaj Road",
  "district": "Ahmedabad",
  "state": "Gujarat",
  "pincode": "380059",
  "latitude": "23.05049",
  "longitude": "72.5093",
  "qr": "http://res.cloudinary.com/ddhncnedj/image/upload/v1698247750/ojv4kimle9kxz9p4htrj.png",
  "population": 6357693
},
{
  "_id":  "6539279ee0265e4af914b8a8",
  "name": "Thaltej Police Chowki",
  "area": "Drive In Road",
  "district": "Ahmedabad",
  "state": "Gujarat",
  "pincode": "380052",
  "latitude": "23.0477",
  "longitude": "72.52737",
  "qr": "http://res.cloudinary.com/ddhncnedj/image/upload/v1698247749/o3840hph8isksxmb2ghv.png",
  "population": 6357693
},
{
  "_id":  "6539279ee0265e4af914b8a9",
  "name": "Veraval Police Station",
  "area": "Veraval 362265",
  "district": "Keshod",
  "state": "Gujarat",
  "pincode": "",
  "latitude": "20.90581",
  "longitude": "70.37099",
  "qr": "http://res.cloudinary.com/ddhncnedj/image/upload/v1698247752/t8etwjyn56cc3arjqigb.png",
  "population": 68518
},
{
  "_id":  "6539279ee0265e4af914b8aa",
  "name": "Maninager Police Station,styel Check,rambag",
  "area": "Ahmedabad",
  "district": "Ahmedabad",
  "state": "Gujarat",
  "pincode": "India",
  "latitude": "22.9976419189",
  "longitude": "72.602514495",
  "qr": "http://res.cloudinary.com/ddhncnedj/image/upload/v1698247750/nppsqvasi7ffd94w8f2w.png",
  "population": 6357693
},
{
  "_id":  "6539279ee0265e4af914b8ab",
  "name": "Nagnath Police Chowki",
  "area": "Natwar Road",
  "district": "Jetalsar",
  "state": "Gujarat",
  "pincode": "Upleta 360490",
  "latitude": "21.744224",
  "longitude": "70.288235",
  "qr": "http://res.cloudinary.com/ddhncnedj/image/upload/v1698247743/lfoaryhy8stbuiyf6quz.png",
  "population": 14771
},
{
  "_id":  "6539279ee0265e4af914b8ac",
  "name": "Police Station-Balsinor",
  "area": "NH-59",
  "district": "Kapadvanj",
  "state": "Gujarat",
  "pincode": "Balasinor 388255",
  "latitude": "22.9402577",
  "longitude": "73.3370485",
  "qr": "http://res.cloudinary.com/ddhncnedj/image/upload/v1698247748/kfj3aqvjtbdwunuwscy1.png",
  "population": 44764
},
{
  "_id":  "6539279ee0265e4af914b8ad",
  "name": "Meghani Nagar Police Station",
  "area": "Near Last Bus Stop",
  "district": "Ahmedabad",
  "state": "Gujarat",
  "pincode": "380016",
  "latitude": "23.057915",
  "longitude": "72.617822",
  "qr": "http://res.cloudinary.com/ddhncnedj/image/upload/v1698247744/i9ossjhpzobirc8atcai.png",
  "population": 6357693
},
{
  "_id":  "6539279ee0265e4af914b8ae",
  "name": "SRPF Ground Naroda Patiya",
  "area": "Ahmedabad",
  "district": "Ahmedabad",
  "state": "Gujarat",
  "pincode": "India",
  "latitude": "23.0565407501",
  "longitude": "72.6461490998",
  "qr": "http://res.cloudinary.com/ddhncnedj/image/upload/v1698247743/wisgfudvhujxc336pbul.png",
  "population": 6357693
},
{
  "_id":  "6539279ee0265e4af914b8af",
  "name": "Police Station-Kaprada",
  "area": "Dharampur",
  "district": "Dharampur",
  "state": "Gujarat",
  "pincode": "",
  "latitude": "20.34438",
  "longitude": "73.21393",
  "qr": "http://res.cloudinary.com/ddhncnedj/image/upload/v1698247748/xc4hjn8zkqevyhdm5b6y.png",
  "population": 21207
},
{
  "_id":  "6539279ee0265e4af914b8b0",
  "name": "Kaprada Police Station",
  "area": "SH-67",
  "district": "Dharampur",
  "state": "Gujarat",
  "pincode": "396065",
  "latitude": "20.34346",
  "longitude": "73.219129",
  "qr": "http://res.cloudinary.com/ddhncnedj/image/upload/v1698247742/gzp5m3etcrkmx0mdxi27.png",
  "population": 21207
},
{
  "_id":  "6539279ee0265e4af914b8b1",
  "name": "Police Station-Kaprada",
  "area": "SH-183",
  "district": "Dharampur",
  "state": "Gujarat",
  "pincode": "396126",
  "latitude": "20.41394",
  "longitude": "73.12652",
  "qr": "http://res.cloudinary.com/ddhncnedj/image/upload/v1698247749/zaimbwlawvd6bf73hyos.png",
  "population": 21207
},
{
  "_id":  "6539279ee0265e4af914b8b2",
  "name": "Juhapura Police Station",
  "area": "Ahmedabad",
  "district": "Ahmedabad",
  "state": "Gujarat",
  "pincode": "380055",
  "latitude": "22.99368",
  "longitude": "72.527183",
  "qr": "http://res.cloudinary.com/ddhncnedj/image/upload/v1698247742/rgpvkaeck69p6b2uv2lc.png",
  "population": 6357693
},
{
  "_id":  "6539279ee0265e4af914b8b3",
  "name": "Amroli Police Station",
  "area": "Kosad Singh Road",
  "district": "Surat",
  "state": "Gujarat",
  "pincode": "395008",
  "latitude": "21.238056",
  "longitude": "72.848555",
  "qr": "http://res.cloudinary.com/ddhncnedj/image/upload/v1698247748/ogm7jo6nchrisuaawid3.png",
  "population": 4591246
},
{
  "_id":  "6539279ee0265e4af914b8b4",
  "name": "Police Station-Khatodara",
  "area": "Udhana-Magdalla Road",
  "district": "Surat",
  "state": "Gujarat",
  "pincode": "395002",
  "latitude": "21.1759",
  "longitude": "72.83114",
  "qr": "http://res.cloudinary.com/ddhncnedj/image/upload/v1698247750/uglcpk9zb8bbmsocx5wo.png",
  "population": 4591246
},
{
  "_id":  "6539279ee0265e4af914b8b5",
  "name": "Police Station-Valod",
  "area": "Valod",
  "district": "Navsari",
  "state": "Gujarat",
  "pincode": "394640",
  "latitude": "21.0481422",
  "longitude": "73.2621571",
  "qr": "http://res.cloudinary.com/ddhncnedj/image/upload/v1698247742/qebtaxsybpteraemrcvz.png",
  "population": 171109
},
{
  "_id":  "6539279ee0265e4af914b8b6",
  "name": "Adajan Police Station",
  "area": "Surat",
  "district": "Surat",
  "state": "Gujarat",
  "pincode": "",
  "latitude": "21.19302725",
  "longitude": "72.79265815",
  "qr": "http://res.cloudinary.com/ddhncnedj/image/upload/v1698247750/hf0elib4gdirwmsdbnld.png",
  "population": 4591246
},
{
  "_id":  "6539279ee0265e4af914b8b7",
  "name": "Police Station-Uun",
  "area": "SH-26",
  "district": "Jetpur",
  "state": "Gujarat",
  "pincode": "451440",
  "latitude": "21.82118",
  "longitude": "75.45355",
  "qr": "http://res.cloudinary.com/ddhncnedj/image/upload/v1698247743/melsvh0h4hvugm9nuoy5.png",
  "population": 8446
},
{
  "_id":  "6539279ee0265e4af914b8b8",
  "name": "Umara Police Station",
  "area": "Ghod Dod Road",
  "district": "Surat",
  "state": "Gujarat",
  "pincode": "395001",
  "latitude": "21.175741",
  "longitude": "72.809896",
  "qr": "http://res.cloudinary.com/ddhncnedj/image/upload/v1698247743/uffcyobgcgsmp6w6sqdj.png",
  "population": 4591246
},
{
  "_id":  "6539279ee0265e4af914b8b9",
  "name": "Sanvali Police Station",
  "area": "Police Line",
  "district": "Anand",
  "state": "Gujarat",
  "pincode": "391770",
  "latitude": "22.55741",
  "longitude": "73.222295",
  "qr": "http://res.cloudinary.com/ddhncnedj/image/upload/v1698247742/jcasal3qdukyki8fdonc.png",
  "population": 138009
},
{
  "_id":  "6539279ee0265e4af914b8ba",
  "name": "Gandhidham Police Station",
  "area": "Gandhidham",
  "district": "Bhuj",
  "state": "Gujarat",
  "pincode": "Gandhidham",
  "latitude": "23.0708268576",
  "longitude": "70.1351218232",
  "qr": "http://res.cloudinary.com/ddhncnedj/image/upload/v1698247747/ut3hkv1m01oimnpl9rgv.png",
  "population": 133459
},
{
  "_id":  "6539279ee0265e4af914b8bb",
  "name": "Sayajigunj Police Station",
  "area": "Tilak Marg",
  "district": "Vadodara",
  "state": "Gujarat",
  "pincode": "390005",
  "latitude": "22.309768",
  "longitude": "73.18294",
  "qr": "http://res.cloudinary.com/ddhncnedj/image/upload/v1698247746/tmcavsaxj6gfemdzp94b.png",
  "population": 1822221
},
{
  "_id":  "6539279ee0265e4af914b8bc",
  "name": "Bedi Marine Police Station",
  "area": "SH-26",
  "district": "Jamnagar",
  "state": "Gujarat",
  "pincode": "Jamnagar 361002",
  "latitude": "22.49395",
  "longitude": "70.04611",
  "qr": "http://res.cloudinary.com/ddhncnedj/image/upload/v1698247742/fjp2b2hh2yldcs9bz11s.png",
  "population": 492056
},
{
  "_id":  "6539279ee0265e4af914b8bd",
  "name": "Police Station-Marin",
  "area": "Surat",
  "district": "Surat",
  "state": "Gujarat",
  "pincode": "394270",
  "latitude": "21.09644",
  "longitude": "72.65033",
  "qr": "http://res.cloudinary.com/ddhncnedj/image/upload/v1698247742/flq0ch5mmk5j72o9h5mb.png",
  "population": 4591246
},
{
  "_id":  "6539279ee0265e4af914b8be",
  "name": "Mundra Marine Police Station",
  "area": "Mundra 370421",
  "district": "Bhuj",
  "state": "Gujarat",
  "pincode": "Mundra 370421",
  "latitude": "22.821219",
  "longitude": "69.723628",
  "qr": "http://res.cloudinary.com/ddhncnedj/image/upload/v1698247745/twwni1tjre8g9dikex8e.png",
  "population": 133459
},
{
  "_id":  "6539279ee0265e4af914b8bf",
  "name": "Police Pared Ground , Anand",
  "area": "Anand",
  "district": "Anand",
  "state": "Gujarat",
  "pincode": "388001",
  "latitude": "22.5433484585",
  "longitude": "72.9614944284",
  "qr": "http://res.cloudinary.com/ddhncnedj/image/upload/v1698247746/ow6phgktzn6lzxwjqcvp.png",
  "population": 138009
},
{
  "_id":  "6539279ee0265e4af914b8c0",
  "name": "Sayaji Ganj Police Station",
  "area": "Aurobindo Ghosh Road",
  "district": "Vadodara",
  "state": "Gujarat",
  "pincode": "390005",
  "latitude": "22.309759",
  "longitude": "73.182928",
  "qr": "http://res.cloudinary.com/ddhncnedj/image/upload/v1698247748/no3qjmcdfciwsgwwiklu.png",
  "population": 1822221
},
{
  "_id":  "6539279ee0265e4af914b8c1",
  "name": "Police Station-Suigam",
  "area": "Vav",
  "district": "Dhanera",
  "state": "Gujarat",
  "pincode": "India",
  "latitude": "24.15842",
  "longitude": "71.35847",
  "qr": "http://res.cloudinary.com/ddhncnedj/image/upload/v1698247742/rkksbtkbmjytcoo9j1jj.png",
  "population": 23656
},
{
  "_id":  "6539279ee0265e4af914b8c2",
  "name": "Police Station Suigam",
  "area": "Vav",
  "district": "Dhanera",
  "state": "Gujarat",
  "pincode": "385570",
  "latitude": "24.15859",
  "longitude": "71.35865",
  "qr": "http://res.cloudinary.com/ddhncnedj/image/upload/v1698247749/mo2df5yzoo9m0suanxru.png",
  "population": 23656
},
{
  "_id":  "6539279ee0265e4af914b8c3",
  "name": "Chuda Police Station",
  "area": "Chuda",
  "district": "Surendranagar",
  "state": "Gujarat",
  "pincode": "363410",
  "latitude": "22.484624",
  "longitude": "71.69678",
  "qr": "http://res.cloudinary.com/ddhncnedj/image/upload/v1698247743/tzpovkc5zvszfscyrik8.png",
  "population": 179628
},
{
  "_id":  "6539279ee0265e4af914b8c4",
  "name": "Rural Police Line,nadiad",
  "area": "Rural Police Line",
  "district": "Karamsad",
  "state": "Gujarat",
  "pincode": "Nadiad 387001",
  "latitude": "22.690879",
  "longitude": "72.8609725",
  "qr": "http://res.cloudinary.com/ddhncnedj/image/upload/v1698247752/pepu9txmz5cvhemxzo7x.png",
  "population": 32380
},
{
  "_id":  "6539279ee0265e4af914b8c5",
  "name": "Khokhar Police Chowki",
  "area": "Ahmedabad",
  "district": "Ahmedabad",
  "state": "Gujarat",
  "pincode": "380008",
  "latitude": "23.001525",
  "longitude": "72.620004",
  "qr": "http://res.cloudinary.com/ddhncnedj/image/upload/v1698247746/msohk17qgpa0xgry25oa.png",
  "population": 6357693
},
{
  "_id":  "6539279ee0265e4af914b8c6",
  "name": "D C B Police Station-Pratap Nagar",
  "area": "Yashin Khan Pathan Road",
  "district": "Vadodara",
  "state": "Gujarat",
  "pincode": "390017",
  "latitude": "22.29668",
  "longitude": "73.21527",
  "qr": "http://res.cloudinary.com/ddhncnedj/image/upload/v1698247749/twkp1mshuazcphgv1vn2.png",
  "population": 1822221
},
{
  "_id":  "6539279ee0265e4af914b8c7",
  "name": "Police Station Kalupur Outer",
  "area": "Ahmedabad",
  "district": "Ahmedabad",
  "state": "Gujarat",
  "pincode": "380002",
  "latitude": "23.030798",
  "longitude": "72.59881",
  "qr": "http://res.cloudinary.com/ddhncnedj/image/upload/v1698247742/remxlkk3vjccpbyzkyig.png",
  "population": 6357693
},
{
  "_id":  "6539279ee0265e4af914b8c8",
  "name": "Lakkad Khod Police Station",
  "area": "Lakkad Road",
  "district": "Surat",
  "state": "Gujarat",
  "pincode": "395003",
  "latitude": "21.200902",
  "longitude": "72.836364",
  "qr": "http://res.cloudinary.com/ddhncnedj/image/upload/v1698247751/urue5qagqdirzies8dut.png",
  "population": 4591246
},
{
  "_id":  "6539279ee0265e4af914b8c9",
  "name": "Police Station-Songadh",
  "area": "Songadh",
  "district": "Chikhli",
  "state": "Gujarat",
  "pincode": "Songadh",
  "latitude": "21.1676",
  "longitude": "73.56134",
  "qr": "http://res.cloudinary.com/ddhncnedj/image/upload/v1698247745/t0rff4qq2kaaaatp1t6w.png",
  "population": 7480
},
{
  "_id":  "6539279ee0265e4af914b8ca",
  "name": "Kalu Pur Police Chowki",
  "area": "Kalupur",
  "district": "Ahmedabad",
  "state": "Gujarat",
  "pincode": "380001",
  "latitude": "23.030813",
  "longitude": "72.59784",
  "qr": "http://res.cloudinary.com/ddhncnedj/image/upload/v1698247745/r7i0je8ktqb6uomckmwj.png",
  "population": 6357693
},
{
  "_id":  "6539279ee0265e4af914b8cb",
  "name": "Khambha Police Compound",
  "area": "Khambha",
  "district": "Amreli",
  "state": "Gujarat",
  "pincode": "365650",
  "latitude": "21.141154",
  "longitude": "71.253473",
  "qr": "http://res.cloudinary.com/ddhncnedj/image/upload/v1698247746/eqepcittueenekzpwsuu.png",
  "population": 99742
},
{
  "_id":  "6539279ee0265e4af914b8cc",
  "name": "Tambu Chowki",
  "area": "Dariapur",
  "district": "Ahmedabad",
  "state": "Gujarat",
  "pincode": "380001",
  "latitude": "23.035585",
  "longitude": "72.593005",
  "qr": "http://res.cloudinary.com/ddhncnedj/image/upload/v1698247743/dkz6hj2srmrorwzenpi6.png",
  "population": 6357693
},
{
  "_id":  "6539279ee0265e4af914b8cd",
  "name": "Kalidindi Police Station",
  "area": "SH-63",
  "district": "Chikhli",
  "state": "Gujarat",
  "pincode": "521344",
  "latitude": "16.5085",
  "longitude": "81.29688",
  "qr": "http://res.cloudinary.com/ddhncnedj/image/upload/v1698247748/wdb5uxzll1m7ii7ecpli.png",
  "population": 52841
},
{
  "_id":  "6539279ee0265e4af914b8ce",
  "name": "Radhanpur Circle Police Station",
  "area": "Mehsana 384002",
  "district": "Kadi",
  "state": "Gujarat",
  "pincode": "Mehsana 384002",
  "latitude": "23.605648",
  "longitude": "72.381653",
  "population": 58066
},
{
  "_id":  "6539279ee0265e4af914b8cf",
  "name": "Police Station-Neradigonda",
  "area": "Boath",
  "district": "Chikhli",
  "state": "Gujarat",
  "pincode": "Boath",
  "latitude": "19.30357",
  "longitude": "78.40682",
  "qr": "http://res.cloudinary.com/ddhncnedj/image/upload/v1698247750/fol53qsfvdcie62vvbix.png",
  "population": 52841
},
{
  "_id":  "6539279ee0265e4af914b8d0",
  "name": "Champaner-Police Station",
  "area": "Halol",
  "district": "Dabhoi",
  "state": "Gujarat",
  "pincode": "Halol",
  "latitude": "22.46863",
  "longitude": "73.52319",
  "qr": "http://res.cloudinary.com/ddhncnedj/image/upload/v1698247742/oquofmhajeceg8hxxy5b.png",
  "population": 56253
},
{
  "_id":  "6539279ee0265e4af914b8d1",
  "name": "Ahwa Police Station",
  "area": "Main Road Ahwa",
  "district": "Dharampur",
  "state": "Gujarat",
  "pincode": "Ahwa 394710",
  "latitude": "20.7569446564",
  "longitude": "73.6875",
  "qr": "http://res.cloudinary.com/ddhncnedj/image/upload/v1698247747/qrfsncxlybgtqa6jlwgx.png",
  "population": 21207
},
{
  "_id":  "6539279ee0265e4af914b8d2",
  "name": "Police Chowki Punagam",
  "area": "Surat",
  "district": "Surat",
  "state": "Gujarat",
  "pincode": "395010",
  "latitude": "21.20263",
  "longitude": "72.87261",
  "qr": "http://res.cloudinary.com/ddhncnedj/image/upload/v1698247743/wb1b7pjwgnhygn26rjk0.png",
  "population": 4591246
},
{
  "_id":  "6539279ee0265e4af914b8d3",
  "name": "Police station-gotri",
  "area": "Vadodara",
  "district": "Vadodara",
  "state": "Gujarat",
  "pincode": "India",
  "latitude": "22.31217",
  "longitude": "73.13322",
  "qr": "http://res.cloudinary.com/ddhncnedj/image/upload/v1698247747/bz0yyn5tlow1361oxkwt.png",
  "population": 1822221
},
{
  "_id":  "6539279ee0265e4af914b8d4",
  "name": "Begampura Police Station",
  "area": "Nawabwadi Road",
  "district": "Surat",
  "state": "Gujarat",
  "pincode": "395003",
  "latitude": "21.196303",
  "longitude": "72.83721",
  "qr": "http://res.cloudinary.com/ddhncnedj/image/upload/v1698247742/bfo8nwhcsskfxtud67xx.png",
  "population": 4591246
},
{
  "_id":  "6539279ee0265e4af914b8d5",
  "name": "B Division Police Station Mehsana City",
  "area": "Sagar Society",
  "district": "Kadi",
  "state": "Gujarat",
  "pincode": "Mehsana 384002",
  "latitude": "23.598815",
  "longitude": "72.378828",
  "qr": "http://res.cloudinary.com/ddhncnedj/image/upload/v1698247748/trnxxumbvukrczy4pojt.png",
  "population": 58066
},
{
  "_id":  "6539279ee0265e4af914b8d6",
  "name": "Sami Police Station",
  "area": "Shankheswar To Radhanpur Road Sami",
  "district": "Kadi",
  "state": "Gujarat",
  "pincode": "384245",
  "latitude": "23.6872",
  "longitude": "71.77912",
  "qr": "http://res.cloudinary.com/ddhncnedj/image/upload/v1698247752/ebmjgmnpp7pqs5orec4w.png",
  "population": 58066
},
{
  "_id":  "6539279ee0265e4af914b8d7",
  "name": "Satellite Police Station-Ramdev Nagar",
  "area": "Satellite Road",
  "district": "Ahmedabad",
  "state": "Gujarat",
  "pincode": "380015",
  "latitude": "23.02746",
  "longitude": "72.51091",
  "qr": "http://res.cloudinary.com/ddhncnedj/image/upload/v1698247743/hfpadt3zaueveiiomxmo.png",
  "population": 6357693
},
{
  "_id":  "6539279ee0265e4af914b8d8",
  "name": "Tankara",
  "area": "Tankara",
  "district": "Dhrol",
  "state": "Gujarat",
  "pincode": "India",
  "latitude": "22.72076",
  "longitude": "70.78475",
  "qr": "http://res.cloudinary.com/ddhncnedj/image/upload/v1698247742/zyc4tvmybuax0ywjdicb.png",
  "population": 26496
},
{
  "_id":  "6539279ee0265e4af914b8d9",
  "name": "Adishwarnagar Bit Chowki",
  "area": "Nava Naroda Road",
  "district": "Ahmedabad",
  "state": "Gujarat",
  "pincode": "382330",
  "latitude": "23.068425",
  "longitude": "72.660933",
  "qr": "http://res.cloudinary.com/ddhncnedj/image/upload/v1698247752/npjs7znqgmvb2fz7mqav.png",
  "population": 6357693
},
{
  "_id":  "6539279ee0265e4af914b8da",
  "name": "     , ",
  "area": " ...    ",
  "district": "Dharampur",
  "state": "Gujarat",
  "pincode": "Valsad 396195",
  "latitude": "20.37133",
  "longitude": "72.90903",
  "qr": "http://res.cloudinary.com/ddhncnedj/image/upload/v1698247752/phv4u9vjd8zehfpmiwqp.png",
  "population": 21207
},
{
  "_id":  "6539279ee0265e4af914b8db",
  "name": "Police Station-Palanpur",
  "area": "Palanpur 385001",
  "district": "Dhanera",
  "state": "Gujarat",
  "pincode": "Palanpur 385001",
  "latitude": "24.19378",
  "longitude": "72.437",
  "qr": "http://res.cloudinary.com/ddhncnedj/image/upload/v1698247743/bsrtjea3wnqmdm7okqp0.png",
  "population": 23656
},
{
  "_id":  "6539279ee0265e4af914b8dc",
  "name": "Town Police Station-Tadpatri",
  "area": "Putlur Road",
  "district": "Chikhli",
  "state": "Gujarat",
  "pincode": "Tadipatri 515411",
  "latitude": "14.9094538",
  "longitude": "78.0092951",
  "qr": "http://res.cloudinary.com/ddhncnedj/image/upload/v1698247751/q5k5ce1qtufui2h3dxy4.png",
  "population": 52841
},
{
  "_id":  "6539279ee0265e4af914b8dd",
  "name": "Vatva New Police Station",
  "area": "Vatva Road",
  "district": "Ahmedabad",
  "state": "Gujarat",
  "pincode": "382440",
  "latitude": "22.9609532205",
  "longitude": "72.6125482677",
  "qr": "http://res.cloudinary.com/ddhncnedj/image/upload/v1698247752/avsv2ufvrzpro1jybxky.png",
  "population": 6357693
},
{
  "_id":  "6539279ee0265e4af914b8de",
  "name": "Vatva Police Chowki",
  "area": "Ahmedabad",
  "district": "Ahmedabad",
  "state": "Gujarat",
  "pincode": "382445",
  "latitude": "22.971415",
  "longitude": "72.62839",
  "qr": "http://res.cloudinary.com/ddhncnedj/image/upload/v1698247743/btpvcm72gouxfhavewef.png",
  "population": 6357693
},
{
  "_id":  "6539279ee0265e4af914b8df",
  "name": "Rokadnath Police Station",
  "area": "Navabazar",
  "district": "Vadodara",
  "state": "Gujarat",
  "pincode": "390001",
  "latitude": "22.303333",
  "longitude": "73.206389",
  "qr": "http://res.cloudinary.com/ddhncnedj/image/upload/v1698247742/zyi8wxnu8pra0p2jnrg4.png",
  "population": 1822221
},
{
  "_id":  "6539279ee0265e4af914b8e0",
  "name": "Police Station-Sankheda",
  "area": "Sankheda",
  "district": "Dabhoi",
  "state": "Gujarat",
  "pincode": "391125",
  "latitude": "22.1947",
  "longitude": "73.54139",
  "qr": "http://res.cloudinary.com/ddhncnedj/image/upload/v1698247745/qrnk1lfhqrg0h9na4egg.png",
  "population": 56253
},
{
  "_id":  "6539279ee0265e4af914b8e1",
  "name": "Umbergaon Police Chowki",
  "area": "Umargam",
  "district": "Dharampur",
  "state": "Gujarat",
  "pincode": "396170",
  "latitude": "20.19917",
  "longitude": "72.7503",
  "qr": "http://res.cloudinary.com/ddhncnedj/image/upload/v1698247751/r6a1f13m6r3gsplmasnc.png",
  "population": 21207
},
{
  "_id":  "6539279ee0265e4af914b8e2",
  "name": "Harni Police Station",
  "area": "Harni",
  "district": "Vadodara",
  "state": "Gujarat",
  "pincode": "390022",
  "latitude": "22.35026",
  "longitude": "73.229223",
  "qr": "http://res.cloudinary.com/ddhncnedj/image/upload/v1698247742/bnzzplb6rcjp2djwg4gj.png",
  "population": 1822221
},
{
  "_id":  "6539279ee0265e4af914b8e3",
  "name": "Police Station-Ramol Chokdi",
  "area": "Vatva Gidc Road",
  "district": "Ahmedabad",
  "state": "Gujarat",
  "pincode": "382445",
  "latitude": "22.96713",
  "longitude": "72.64669",
  "qr": "http://res.cloudinary.com/ddhncnedj/image/upload/v1698247744/t4h3ng4joopxalccotko.png",
  "population": 6357693
},
{
  "_id":  "6539279ee0265e4af914b8e4",
  "name": "Subhash Bridge Police Station",
  "area": "Ashram Road",
  "district": "Ahmedabad",
  "state": "Gujarat",
  "pincode": "380027",
  "latitude": "23.066363",
  "longitude": "72.582604",
  "qr": "http://res.cloudinary.com/ddhncnedj/image/upload/v1698247747/qwjghytgenodffxzj41a.png",
  "population": 6357693
},
{
  "_id":  "6539279ee0265e4af914b8e5",
  "name": "Police Station-City Wadhwan",
  "area": "Dudhrej Road",
  "district": "Surendranagar",
  "state": "Gujarat",
  "pincode": "Dudhrej 363001",
  "latitude": "22.72507",
  "longitude": "71.62842",
  "qr": "http://res.cloudinary.com/ddhncnedj/image/upload/v1698247742/ts2exi3vnutnykqco6fz.png",
  "population": 179628
},
{
  "_id":  "6539279ee0265e4af914b8e6",
  "name": "Vastral Ring Road Police Chowki",
  "area": "Ahmedabad",
  "district": "Ahmedabad",
  "state": "Gujarat",
  "pincode": "382418",
  "latitude": "22.999633",
  "longitude": "72.666705",
  "qr": "http://res.cloudinary.com/ddhncnedj/image/upload/v1698247751/il4zbtemwkpriqhxzpat.png",
  "population": 6357693
},
{
  "_id":  "6539279ee0265e4af914b8e7",
  "name": "Vastral Police Chowki",
  "area": "Ahmedabad",
  "district": "Ahmedabad",
  "state": "Gujarat",
  "pincode": "382418",
  "latitude": "23.002493",
  "longitude": "72.649253",
  "qr": "http://res.cloudinary.com/ddhncnedj/image/upload/v1698247745/cuklwdtztfdrk1grpljn.png",
  "population": 6357693
},
{
  "_id":  "6539279ee0265e4af914b8e8",
  "name": "Police Station-Mehsana",
  "area": "Mehsana 384002",
  "district": "Kadi",
  "state": "Gujarat",
  "pincode": "Mehsana 384002",
  "latitude": "23.60787",
  "longitude": "72.38215",
  "qr": "http://res.cloudinary.com/ddhncnedj/image/upload/v1698247752/xyftw9z6ffipvncztpzy.png",
  "population": 58066
},
{
  "_id":  "6539279ee0265e4af914b8e9",
  "name": "Vadtal Police Station",
  "area": "Nadiad 387375",
  "district": "Karamsad",
  "state": "Gujarat",
  "pincode": "Nadiad 387375",
  "latitude": "22.5945432",
  "longitude": "72.87367",
  "qr": "http://res.cloudinary.com/ddhncnedj/image/upload/v1698247749/ioargddxzgtqg3kztctw.png",
  "population": 32380
},
{
  "_id":  "6539279ee0265e4af914b8ea",
  "name": "Rural Police Station-Tadipatri",
  "area": "SH-31",
  "district": "Chikhli",
  "state": "Gujarat",
  "pincode": "Tadipatri 515411",
  "latitude": "14.9044712",
  "longitude": "78.0199311",
  "qr": "http://res.cloudinary.com/ddhncnedj/image/upload/v1698247752/mkrjxlq1gm5bjrabo3bo.png",
  "population": 52841
},
{
  "_id":  "6539279ee0265e4af914b8eb",
  "name": "Halvad police station",
  "area": "Halvad",
  "district": "Halvad",
  "state": "Gujarat",
  "pincode": "Halvad",
  "latitude": "23.0133320241",
  "longitude": "71.1759287854",
  "qr": "http://res.cloudinary.com/ddhncnedj/image/upload/v1698247748/jrfpsnnfzr8mrkptjdyq.png",
  "population": 26205
},
{
  "_id":  "6539279ee0265e4af914b8ec",
  "name": "Police Station Madhapar",
  "area": "Bhuj 370020",
  "district": "Bhuj",
  "state": "Gujarat",
  "pincode": "Bhuj 370020",
  "latitude": "23.24076",
  "longitude": "69.71083",
  "qr": "http://res.cloudinary.com/ddhncnedj/image/upload/v1698247747/b6kfhkw4ee1ngtnftctz.png",
  "population": 133459
},
{
  "_id":  "6539279ee0265e4af914b8ed",
  "name": "Police Station-Chhani",
  "area": "Rama Kaka Road",
  "district": "Vadodara",
  "state": "Gujarat",
  "pincode": "391740",
  "latitude": "22.36489",
  "longitude": "73.16756",
  "qr": "http://res.cloudinary.com/ddhncnedj/image/upload/v1698247746/s3hsbz2knluovl3g6vna.png",
  "population": 1822221
},
{
  "_id":  "6539279ee0265e4af914b8ee",
  "name": "Chhani Jagat Naka Police Station",
  "area": "Vadodara",
  "district": "Vadodara",
  "state": "Gujarat",
  "pincode": "390024",
  "latitude": "22.343076",
  "longitude": "73.177316",
  "qr": "http://res.cloudinary.com/ddhncnedj/image/upload/v1698247742/udvddbnenyszju3eolpb.png",
  "population": 1822221
},
{
  "_id":  "6539279ee0265e4af914b8ef",
  "name": "Tarsali Police Chowki",
  "area": "Maharshi Dayanand Marg",
  "district": "Vadodara",
  "state": "Gujarat",
  "pincode": "390009",
  "latitude": "22.257375",
  "longitude": "73.212343",
  "qr": "http://res.cloudinary.com/ddhncnedj/image/upload/v1698247750/xf4ufawgtva5o8jbf22x.png",
  "population": 1822221
},
{
  "_id":  "6539279ee0265e4af914b8f0",
  "name": "Superintendent of Police",
  "area": "DC 5",
  "district": "Bhuj",
  "state": "Gujarat",
  "pincode": "Gandhidham 370205",
  "latitude": "23.068416",
  "longitude": "70.103438",
  "qr": "http://res.cloudinary.com/ddhncnedj/image/upload/v1698247750/syogjq2sraoucmx8ydyj.png",
  "population": 133459
},
{
  "_id":  "6539279ee0265e4af914b8f1",
  "name": "Office of the Superintendent of Police",
  "area": "Dudhrej 363001",
  "district": "Surendranagar",
  "state": "Gujarat",
  "pincode": "Dudhrej 363001",
  "latitude": "22.72766",
  "longitude": "71.62114",
  "qr": "http://res.cloudinary.com/ddhncnedj/image/upload/v1698247748/kqasq5fp6i8dyarszsvg.png",
  "population": 179628
},
{
  "_id":  "6539279ee0265e4af914b8f2",
  "name": "Madhapur Police Stations",
  "area": "Madhavpura",
  "district": "Ahmedabad",
  "state": "Gujarat",
  "pincode": "380004",
  "latitude": "23.01632",
  "longitude": "72.61359",
  "qr": "http://res.cloudinary.com/ddhncnedj/image/upload/v1698247746/mmokx8dej45nepxwn2x1.png",
  "population": 6357693
},
{
  "_id":  "6539279ee0265e4af914b8f3",
  "name": "Piplod Police Chowki",
  "area": "Surat Dumas Road",
  "district": "Surat",
  "state": "Gujarat",
  "pincode": "395007",
  "latitude": "21.1683205",
  "longitude": "72.7785810667",
  "qr": "http://res.cloudinary.com/ddhncnedj/image/upload/v1698247749/hk4xlhexak31swfdokvl.png",
  "population": 4591246
},
{
  "_id":  "6539279ee0265e4af914b8f4",
  "name": "Police Station-Kuvadva Road",
  "area": "Kuvadva Road",
  "district": "Chotila",
  "state": "Gujarat",
  "pincode": "",
  "latitude": "22.32259",
  "longitude": "70.84674",
  "qr": "http://res.cloudinary.com/ddhncnedj/image/upload/v1698247744/q7fz73e2id7vqwxgl7gs.png",
  "population": 15197
},
{
  "_id":  "6539279ee0265e4af914b8f5",
  "name": "Police Station-Bhelupur",
  "area": "SH-6",
  "district": "Borsad",
  "state": "Gujarat",
  "pincode": "Borsad 388530",
  "latitude": "22.36355",
  "longitude": "72.90429",
  "qr": "http://res.cloudinary.com/ddhncnedj/image/upload/v1698247750/l8gwekwiydmzv0mj1iri.png",
  "population": 60271
},
{
  "_id":  "6539279ee0265e4af914b8f6",
  "name": "Dakor Police Station",
  "area": "SH-60",
  "district": "Anand",
  "state": "Gujarat",
  "pincode": "Dakor 388225",
  "latitude": "22.7517454703",
  "longitude": "73.1519401073",
  "qr": "http://res.cloudinary.com/ddhncnedj/image/upload/v1698247746/l37hlfvw1k5kru73tfk7.png",
  "population": 138009
},
{
  "_id":  "6539279ee0265e4af914b8f7",
  "name": "Thorala Police Station",
  "area": "Bhavnagar Road",
  "district": "Gondal",
  "state": "Gujarat",
  "pincode": "360003",
  "latitude": "22.29191",
  "longitude": "70.8220933",
  "qr": "http://res.cloudinary.com/ddhncnedj/image/upload/v1698247750/wvogshegrbywbvizfupr.png",
  "population": 101801
},
{
  "_id":  "6539279ee0265e4af914b8f8",
  "name": "Police Station",
  "area": "Khed Brahma",
  "district": "Himatnagar",
  "state": "Gujarat",
  "pincode": "383255",
  "latitude": "24.037439",
  "longitude": "73.049036",
  "qr": "http://res.cloudinary.com/ddhncnedj/image/upload/v1698247748/fzz8rdbyoikgfxhu6vsw.png",
  "population": 60634
},
{
  "_id":  "6539279ee0265e4af914b8f9",
  "name": "Anandnagar Police Station",
  "area": "Satellite Service Road",
  "district": "Ahmedabad",
  "state": "Gujarat",
  "pincode": "380015",
  "latitude": "23.0237385333",
  "longitude": "72.5331023333",
  "qr": "http://res.cloudinary.com/ddhncnedj/image/upload/v1698247751/hgluf8cq39idrmql2doe.png",
  "population": 6357693
},
{
  "_id":  "6539279ee0265e4af914b8fa",
  "name": "Jambusar Bypass Police Chowki",
  "area": "Dahej Road",
  "district": "Amod",
  "state": "Gujarat",
  "pincode": "Bharuch 392001",
  "latitude": "21.705438",
  "longitude": "72.966119",
  "qr": "http://res.cloudinary.com/ddhncnedj/image/upload/v1698247746/jyx5inriv9uegyjevazg.png",
  "population": 18742
},
{
  "_id":  "6539279ee0265e4af914b8fb",
  "name": "Jambusar Police Station",
  "area": "Near Juma Masjid Road",
  "district": "Amod",
  "state": "Gujarat",
  "pincode": "Bharuch 392001",
  "latitude": "21.69288",
  "longitude": "72.983366",
  "qr": "http://res.cloudinary.com/ddhncnedj/image/upload/v1698247745/alwm4c7usdriwfs5bgsx.png",
  "population": 18742
},
{
  "_id":  "6539279ee0265e4af914b8fc",
  "name": "Police Station-Rajkot Sub-District",
  "area": "Rajkot",
  "district": "Jasdan",
  "state": "Gujarat",
  "pincode": "360025",
  "latitude": "22.13843",
  "longitude": "70.98323",
  "qr": "http://res.cloudinary.com/ddhncnedj/image/upload/v1698247742/hnpapf967kzbben8dzm9.png",
  "population": 43861
},
{
  "_id":  "6539279ee0265e4af914b8fd",
  "name": "Pandesara Police Station",
  "area": "Pani Ki Tanki Road",
  "district": "Surat",
  "state": "Gujarat",
  "pincode": "394220",
  "latitude": "21.1485068007",
  "longitude": "72.8328092502",
  "qr": "http://res.cloudinary.com/ddhncnedj/image/upload/v1698247746/dnbw9kqrpbbpqmbqmi4o.png",
  "population": 4591246
},
{
  "_id":  "6539279ee0265e4af914b8fe",
  "name": "Nagnath Gate Police Chowki",
  "area": "I. G. Road",
  "district": "Jamnagar",
  "state": "Gujarat",
  "pincode": "Jamnagar 361001",
  "latitude": "22.47259",
  "longitude": "70.07884",
  "qr": "http://res.cloudinary.com/ddhncnedj/image/upload/v1698247749/a4c9ah8zv5pw0oejyr6q.png",
  "population": 492056
},
{
  "_id":  "6539279ee0265e4af914b8ff",
  "name": "Police Chowki Idgah",
  "area": "Idgah Circle",
  "district": "Ahmedabad",
  "state": "Gujarat",
  "pincode": "380004",
  "latitude": "23.040464",
  "longitude": "72.596364",
  "qr": "http://res.cloudinary.com/ddhncnedj/image/upload/v1698247751/upzjkwsjk7gztrvefftx.png",
  "population": 6357693
},
{
  "_id":  "6539279ee0265e4af914b900",
  "name": "Khadia Police Station",
  "area": "Ahmedabad",
  "district": "Ahmedabad",
  "state": "Gujarat",
  "pincode": "380001",
  "latitude": "23.0173465284",
  "longitude": "72.5946138707",
  "qr": "http://res.cloudinary.com/ddhncnedj/image/upload/v1698247746/mem2g5x099txelpslmot.png",
  "population": 6357693
},
{
  "_id":  "6539279ee0265e4af914b901",
  "name": "Ambavadi Police Line",
  "area": "Himatnagar 383001",
  "district": "Himatnagar",
  "state": "Gujarat",
  "pincode": "Himatnagar 383001",
  "latitude": "23.596269",
  "longitude": "72.967718",
  "qr": "http://res.cloudinary.com/ddhncnedj/image/upload/v1698247748/pbip28esuupcg4zhtkn9.png",
  "population": 60634
},
{
  "_id":  "6539279ee0265e4af914b902",
  "name": "Police Station Lal Bazar",
  "area": "Bharuch 392001",
  "district": "Amod",
  "state": "Gujarat",
  "pincode": "Bharuch 392001",
  "latitude": "21.693798",
  "longitude": "72.980688",
  "qr": "http://res.cloudinary.com/ddhncnedj/image/upload/v1698247746/hg6kzgwbkhbnmbpcowle.png",
  "population": 18742
},
{
  "_id":  "6539279ee0265e4af914b903",
  "name": "Police Station-Khanpur",
  "area": "Khanpur Road",
  "district": "Ahmedabad",
  "state": "Gujarat",
  "pincode": "380001",
  "latitude": "23.0304",
  "longitude": "72.57702",
  "qr": "http://res.cloudinary.com/ddhncnedj/image/upload/v1698247745/oq89ajs2c4sycmv1usix.png",
  "population": 6357693
},
{
  "_id":  "6539279ee0265e4af914b904",
  "name": "Kamal Bagh Police Station",
  "area": "MG Road Opposite - Kamla Nehru Park",
  "district": "Porbandar",
  "state": "Gujarat",
  "pincode": "Porbandar 360575",
  "latitude": "21.63918",
  "longitude": "69.623174",
  "qr": "http://res.cloudinary.com/ddhncnedj/image/upload/v1698247745/uolkalbmct7av1ftgfwq.png",
  "population": 138872
},
{
  "_id":  "6539279ee0265e4af914b905",
  "name": "Kamlabaug Police Station",
  "area": "Porbandar",
  "district": "Porbandar",
  "state": "Gujarat",
  "pincode": "Porbandar",
  "latitude": "21.63791716",
  "longitude": "69.6262091308",
  "qr": "http://res.cloudinary.com/ddhncnedj/image/upload/v1698247746/snch6gilkc9lpkuyilp2.png",
  "population": 138872
},
{
  "_id":  "6539279ee0265e4af914b906",
  "name": "Kirti Mandir Police Station",
  "area": "Kirti Mandir Road",
  "district": "Porbandar",
  "state": "Gujarat",
  "pincode": "Porbandar 360575",
  "latitude": "21.642323",
  "longitude": "69.600742",
  "qr": "http://res.cloudinary.com/ddhncnedj/image/upload/v1698247749/yxcukjgk2skh7wilashm.png",
  "population": 138872
},
{
  "_id":  "6539279ee0265e4af914b907",
  "name": "Juni Fuvara Police Lines",
  "area": "Porbandar 360575",
  "district": "Porbandar",
  "state": "Gujarat",
  "pincode": "Porbandar 360575",
  "latitude": "21.639335",
  "longitude": "69.610527",
  "qr": "http://res.cloudinary.com/ddhncnedj/image/upload/v1698247749/og0hr47yilzzdq76jrcc.png",
  "population": 138872
},
{
  "_id":  "6539279ee0265e4af914b908",
  "name": "Police Station-Datha",
  "area": "Talaja 364130",
  "district": "Dungarpur",
  "state": "Gujarat",
  "pincode": "Talaja 364130",
  "latitude": "21.20257",
  "longitude": "71.96023",
  "qr": "http://res.cloudinary.com/ddhncnedj/image/upload/v1698247750/c1cftryw7alhzr6famnz.png",
  "population": 6105
},
{
  "_id":  "6539279ee0265e4af914b909",
  "name": "Bhuj Central Jail",
  "area": "Bhuj 370002",
  "district": "Bhuj",
  "state": "Gujarat",
  "pincode": "Bhuj 370002",
  "latitude": "23.2416",
  "longitude": "69.71129",
  "qr": "http://res.cloudinary.com/ddhncnedj/image/upload/v1698247743/hnwvtqq56wnrewt0fjqt.png",
  "population": 133459
},
{
  "_id":  "6539279ee0265e4af914b90a",
  "name": "Police Station Chowk Bazar",
  "area": "Surat",
  "district": "Surat",
  "state": "Gujarat",
  "pincode": "395003",
  "latitude": "21.218458",
  "longitude": "72.822073",
  "qr": "http://res.cloudinary.com/ddhncnedj/image/upload/v1698247744/sd1rsrduws8glto5tbps.png",
  "population": 4591246
},
{
  "_id":  "6539279ee0265e4af914b90b",
  "name": "Bhadran Police Station",
  "area": "Borsad 388530",
  "district": "Borsad",
  "state": "Gujarat",
  "pincode": "Borsad 388530",
  "latitude": "22.3598861953",
  "longitude": "72.9032490368",
  "qr": "http://res.cloudinary.com/ddhncnedj/image/upload/v1698247750/f0kc4mrqra61yl4ulrgq.png",
  "population": 60271
},
{
  "_id":  "6539279ee0265e4af914b90c",
  "name": "Police Station-Tadepalligudem",
  "area": "Tadepalligudem 534101",
  "district": "Chikhli",
  "state": "Gujarat",
  "pincode": "Tadepalligudem 534101",
  "latitude": "16.81424",
  "longitude": "81.5272",
  "qr": "http://res.cloudinary.com/ddhncnedj/image/upload/v1698247752/j2hqfg3ellzr3ma85orj.png",
  "population": 52841
},
{
  "_id":  "6539279ee0265e4af914b90d",
  "name": "Mendarda Police Line",
  "area": "SH-26",
  "district": "Keshod",
  "state": "Gujarat",
  "pincode": "362260",
  "latitude": "21.321977",
  "longitude": "70.444416",
  "qr": "http://res.cloudinary.com/ddhncnedj/image/upload/v1698247750/vzex2z5y8rkuft1qtz7o.png",
  "population": 68518
},
{
  "_id":  "6539279ee0265e4af914b90e",
  "name": "Heerapur Police Chowki",
  "area": "Mahemdabad Road",
  "district": "Ahmedabad",
  "state": "Gujarat",
  "pincode": "",
  "latitude": "22.91582",
  "longitude": "72.70014",
  "qr": "http://res.cloudinary.com/ddhncnedj/image/upload/v1698247748/wefdnec4nwxixrwaypxl.png",
  "population": 6357693
},
{
  "_id":  "6539279ee0265e4af914b90f",
  "name": "Sachin Police Station",
  "area": "Old Surat Mumbai Highway",
  "district": "Surat",
  "state": "Gujarat",
  "pincode": "",
  "latitude": "21.08736",
  "longitude": "72.8816",
  "qr": "http://res.cloudinary.com/ddhncnedj/image/upload/v1698247750/osxctakfjdqzivrufder.png",
  "population": 4591246
},
{
  "_id":  "6539279ee0265e4af914b910",
  "name": "Manmohan Police Station",
  "area": "Nikhol Odhav Road",
  "district": "Ahmedabad",
  "state": "Gujarat",
  "pincode": "",
  "latitude": "23.03709",
  "longitude": "72.66203",
  "qr": "http://res.cloudinary.com/ddhncnedj/image/upload/v1698247752/xf4wdhyllk0mmbzbdrd5.png",
  "population": 6357693
},
{
  "_id":  "6539279ee0265e4af914b911",
  "name": "Police Station-Madhavpur",
  "area": "NH-51",
  "district": "Keshod",
  "state": "Gujarat",
  "pincode": "",
  "latitude": "21.15947",
  "longitude": "70.07258",
  "qr": "http://res.cloudinary.com/ddhncnedj/image/upload/v1698247743/agwtwkeqnxhyheym7am8.png",
  "population": 68518
},
{
  "_id":  "6539279ee0265e4af914b912",
  "name": "Police Station, Madhavpur",
  "area": "Nh51",
  "district": "Keshod",
  "state": "Gujarat",
  "pincode": "",
  "latitude": "21.2574",
  "longitude": "69.96388",
  "qr": "http://res.cloudinary.com/ddhncnedj/image/upload/v1698247749/ys0dr0tzzxavxrvqvu4o.png",
  "population": 68518
},
{
  "_id":  "6539279ee0265e4af914b913",
  "name": "Ranavav Police Station",
  "area": "SH-95",
  "district": "Porbandar",
  "state": "Gujarat",
  "pincode": "360550",
  "latitude": "21.68254",
  "longitude": "69.74358",
  "qr": "http://res.cloudinary.com/ddhncnedj/image/upload/v1698247745/jzijpi9mlidvnnryin7x.png",
  "population": 138872
},
{
  "_id":  "6539279ee0265e4af914b914",
  "name": "Police Station Sikka",
  "area": "Nagani Road",
  "district": "Jamnagar",
  "state": "Gujarat",
  "pincode": "",
  "latitude": "22.43335",
  "longitude": "69.83799",
  "qr": "http://res.cloudinary.com/ddhncnedj/image/upload/v1698247746/ouswjabjjibspqeqxep3.png",
  "population": 492056
},
{
  "_id":  "6539279ee0265e4af914b915",
  "name": "Gondal Police Station",
  "area": "SH-31",
  "district": "Jetpur",
  "state": "Gujarat",
  "pincode": "",
  "latitude": "21.77577",
  "longitude": "70.81114",
  "qr": "http://res.cloudinary.com/ddhncnedj/image/upload/v1698247752/dbcsserv9lsicwbycpzt.png",
  "population": 118068
},
{
  "_id":  "6539279ee0265e4af914b916",
  "name": "Gondal Taluka Police Station",
  "area": "SH-320",
  "district": "Gondal",
  "state": "Gujarat",
  "pincode": "",
  "latitude": "21.85186",
  "longitude": "71.02578",
  "qr": "http://res.cloudinary.com/ddhncnedj/image/upload/v1698247746/wlqkpcqywdc7uxdsc1vy.png",
  "population": 101801
},
{
  "_id":  "6539279ee0265e4af914b917",
  "name": "Gondal City Police Station",
  "area": "Gj Sh122",
  "district": "Gondal",
  "state": "Gujarat",
  "pincode": "",
  "latitude": "21.96799",
  "longitude": "70.80772",
  "qr": "http://res.cloudinary.com/ddhncnedj/image/upload/v1698247749/ankewsagfis7runbfu9z.png",
  "population": 101801
},
{
  "_id":  "6539279ee0265e4af914b918",
  "name": "Gondal Road Cheak Post",
  "area": "Ring Road",
  "district": "Gondal",
  "state": "Gujarat",
  "pincode": "",
  "latitude": "22.24277",
  "longitude": "70.7997",
  "qr": "http://res.cloudinary.com/ddhncnedj/image/upload/v1698247745/qjb8i63rztiy4r0ynnf1.png",
  "population": 101801
},
{
  "_id":  "6539279ee0265e4af914b919",
  "name": "Gondal Police Head Quarter",
  "area": "Sukhnath Nagar",
  "district": "Gondal",
  "state": "Gujarat",
  "pincode": "",
  "latitude": "21.96731",
  "longitude": "70.80804",
  "qr": "http://res.cloudinary.com/ddhncnedj/image/upload/v1698247747/lowvhv2ises3tqzghz2b.png",
  "population": 101801
},
{
  "_id":  "6539279ee0265e4af914b91a",
  "name": "Police Station-Kothara",
  "area": "Near Sh91",
  "district": "Bhuj",
  "state": "Gujarat",
  "pincode": "",
  "latitude": "23.1317",
  "longitude": "68.9376",
  "qr": "http://res.cloudinary.com/ddhncnedj/image/upload/v1698247745/elegnozociren4pzi1w4.png",
  "population": 133459
},
{
  "_id":  "6539279ee0265e4af914b91b",
  "name": "Kothara Police Station",
  "area": "SH-91",
  "district": "Bhuj",
  "state": "Gujarat",
  "pincode": "",
  "latitude": "23.13095",
  "longitude": "68.94093",
  "qr": "http://res.cloudinary.com/ddhncnedj/image/upload/v1698247752/rdeaj6hayqneeouupxye.png",
  "population": 133459
},
{
  "_id":  "6539279ee0265e4af914b91c",
  "name": "Kesar Police Station",
  "area": "Main Road",
  "district": "Godhra",
  "state": "Gujarat",
  "pincode": "",
  "latitude": "22.73598",
  "longitude": "73.31589",
  "qr": "http://res.cloudinary.com/ddhncnedj/image/upload/v1698247742/kgvmn20dubksbfrklvuz.png",
  "population": 131913
},
{
  "_id":  "6539279ee0265e4af914b91d",
  "name": "B Div Police Station",
  "area": "Bambakama Road",
  "district": "Amod",
  "state": "Gujarat",
  "pincode": "",
  "latitude": "21.69181",
  "longitude": "72.97457",
  "qr": "http://res.cloudinary.com/ddhncnedj/image/upload/v1698247742/cqhjhmkjzklezboubypp.png",
  "population": 18742
},
{
  "_id":  "6539279ee0265e4af914b91e",
  "name": "Jarod Outpost Police Station",
  "area": "Jarod Baypass",
  "district": "Vadodara",
  "state": "Gujarat",
  "pincode": "",
  "latitude": "22.44038",
  "longitude": "73.3367",
  "qr": "http://res.cloudinary.com/ddhncnedj/image/upload/v1698247747/exaq2lnspxazzgk3qxkm.png",
  "population": 1822221
},
{
  "_id":  "6539279ee0265e4af914b91f",
  "name": "Police Chowki Jarod",
  "area": "SH-63",
  "district": "Vadodara",
  "state": "Gujarat",
  "pincode": "",
  "latitude": "22.4821",
  "longitude": "73.30053",
  "qr": "http://res.cloudinary.com/ddhncnedj/image/upload/v1698247750/yxbmdguenhfws5tyxwsn.png",
  "population": 1822221
},
{
  "_id":  "6539279ee0265e4af914b920",
  "name": "Police Chawki",
  "area": "Indira Gandhi Road",
  "district": "Porbandar",
  "state": "Gujarat",
  "pincode": "",
  "latitude": "21.62804",
  "longitude": "69.63484",
  "qr": "http://res.cloudinary.com/ddhncnedj/image/upload/v1698247744/ujnytb2forbg4djyz35p.png",
  "population": 138872
},
{
  "_id":  "6539279ee0265e4af914b921",
  "name": "Chhiri Police Chawki",
  "area": "Koparli Road",
  "district": "Dharampur",
  "state": "Gujarat",
  "pincode": "",
  "latitude": "20.37852",
  "longitude": "72.93916",
  "qr": "http://res.cloudinary.com/ddhncnedj/image/upload/v1698247746/jqhk2npoptvlykcdksxj.png",
  "population": 21207
},
{
  "_id":  "6539279ee0265e4af914b922",
  "name": "Rentlav Police Chawki",
  "area": "Nh8",
  "district": "Dharampur",
  "state": "Gujarat",
  "pincode": "",
  "latitude": "20.46145",
  "longitude": "72.91986",
  "qr": "http://res.cloudinary.com/ddhncnedj/image/upload/v1698247748/iwjjncv6vrmkm0btxaor.png",
  "population": 21207
},
{
  "_id":  "6539279ee0265e4af914b923",
  "name": "Saraspur Police Chowki",
  "area": "Shri Vasudevdasji Maharaj Marg",
  "district": "Ahmedabad",
  "state": "Gujarat",
  "pincode": "",
  "latitude": "23.03118",
  "longitude": "72.61079",
  "qr": "http://res.cloudinary.com/ddhncnedj/image/upload/v1698247742/tgmbgiuvecy0uvehdwh6.png",
  "population": 6357693
},
{
  "_id":  "6539279ee0265e4af914b924",
  "name": "Bombay Housing Police Chowki Saraspur",
  "area": "Rakhial Road",
  "district": "Ahmedabad",
  "state": "Gujarat",
  "pincode": "",
  "latitude": "23.02158",
  "longitude": "72.60951",
  "qr": "http://res.cloudinary.com/ddhncnedj/image/upload/v1698247744/i4atyownv3fypy1pdzrl.png",
  "population": 6357693
},
{
  "_id":  "6539279ee0265e4af914b925",
  "name": "Saiyad Pura Police Station",
  "area": "Raghunathpura Station Road",
  "district": "Surat",
  "state": "Gujarat",
  "pincode": "",
  "latitude": "21.20682",
  "longitude": "72.82586",
  "qr": "http://res.cloudinary.com/ddhncnedj/image/upload/v1698247750/vj0r5czofdpvfo5uocws.png",
  "population": 4591246
},
{
  "_id":  "6539279ee0265e4af914b926",
  "name": "Chandod Police Chowki",
  "area": "Chandod Village Road",
  "district": "Dabhoi",
  "state": "Gujarat",
  "pincode": "391105",
  "latitude": "21.99061",
  "longitude": "73.45238",
  "qr": "http://res.cloudinary.com/ddhncnedj/image/upload/v1698247751/cchtmkjfxejd7bf2rhbr.png",
  "population": 56253
},
{
  "_id":  "6539279ee0265e4af914b927",
  "name": "Aproch Police Chowki Thakkarbapa Nagar",
  "area": "India Colony Road",
  "district": "Ahmedabad",
  "state": "Gujarat",
  "pincode": "382350",
  "latitude": "23.03912",
  "longitude": "72.63936",
  "qr": "http://res.cloudinary.com/ddhncnedj/image/upload/v1698247752/xfengan0n1ckfdbm4iba.png",
  "population": 6357693
},
{
  "_id":  "6539279ee0265e4af914b928",
  "name": "Police Stations Parda",
  "area": "Near Bus Stand Road",
  "district": "Vadodara",
  "state": "Gujarat",
  "pincode": "391440",
  "latitude": "22.2418",
  "longitude": "73.0839",
  "qr": "http://res.cloudinary.com/ddhncnedj/image/upload/v1698247751/rckrsd25bnl8x5hdmoxy.png",
  "population": 1822221
},
{
  "_id":  "6539279ee0265e4af914b929",
  "name": "Dhoraji City Police Station",
  "area": "Blue Star Cinema",
  "district": "Jetalsar",
  "state": "Gujarat",
  "pincode": "",
  "latitude": "21.73009",
  "longitude": "70.45088",
  "qr": "http://res.cloudinary.com/ddhncnedj/image/upload/v1698247746/nwca5p9xska9pkloduyv.png",
  "population": 14771
},
{
  "_id":  "6539279ee0265e4af914b92a",
  "name": "Naroda Police Station",
  "area": "Sutarna Karkhana Road",
  "district": "Ahmedabad",
  "state": "Gujarat",
  "pincode": "",
  "latitude": "23.07834",
  "longitude": "72.65644",
  "qr": "http://res.cloudinary.com/ddhncnedj/image/upload/v1698247749/uqbmr4i4ohwo5pbfdgvi.png",
  "population": 6357693
},
{
  "_id":  "6539279ee0265e4af914b92b",
  "name": "Sri Siddhi Vinayaka Police Chowk Memar",
  "area": "SH-3",
  "district": "Kheda",
  "state": "Gujarat",
  "pincode": "",
  "latitude": "22.8326",
  "longitude": "72.76359",
  "qr": "http://res.cloudinary.com/ddhncnedj/image/upload/v1698247750/kpbab0akxpdcewuwffjv.png",
  "population": 24767
},
{
  "_id":  "6539279ee0265e4af914b92c",
  "name": "Vapi GIDC Police Station",
  "area": "Koprali Road",
  "district": "Dharampur",
  "state": "Gujarat",
  "pincode": "",
  "latitude": "20.37536",
  "longitude": "72.9205",
  "qr": "http://res.cloudinary.com/ddhncnedj/image/upload/v1698247750/rbuqewsrzf4vg3cn5379.png",
  "population": 21207
},
{
  "_id":  "6539279ee0265e4af914b92d",
  "name": "GIDC Police Station",
  "area": "Gidc Road",
  "district": "Dharampur",
  "state": "Gujarat",
  "pincode": "396191",
  "latitude": "20.36099",
  "longitude": "72.92202",
  "qr": "http://res.cloudinary.com/ddhncnedj/image/upload/v1698247750/d2p7lhvdk6fyt8t1disn.png",
  "population": 21207
},
{
  "_id":  "6539279ee0265e4af914b92e",
  "name": "Gidc Police Chowki",
  "area": "Savli Halol Road",
  "district": "Godhra",
  "state": "Gujarat",
  "pincode": "389350",
  "latitude": "22.53046",
  "longitude": "73.4649",
  "qr": "http://res.cloudinary.com/ddhncnedj/image/upload/v1698247752/muc9diw3smxycqmmpzuf.png",
  "population": 131913
},
{
  "_id":  "6539279ee0265e4af914b92f",
  "name": "GIDC Police Station",
  "area": "Gidc",
  "district": "Gandhinagar",
  "state": "Gujarat",
  "pincode": "",
  "latitude": "23.17001",
  "longitude": "72.81663",
  "qr": "http://res.cloudinary.com/ddhncnedj/image/upload/v1698247749/rbeckemlei25ilgnaf5l.png",
  "population": 195985
},
{
  "_id":  "6539279ee0265e4af914b930",
  "name": "GIDC Police Station",
  "area": "Gidc",
  "district": "Gandhinagar",
  "state": "Gujarat",
  "pincode": "382305",
  "latitude": "23.17066",
  "longitude": "72.8205",
  "qr": "http://res.cloudinary.com/ddhncnedj/image/upload/v1698247752/ftrhvpkxpwybv02jr0eh.png",
  "population": 195985
},
{
  "_id":  "6539279ee0265e4af914b931",
  "name": "Gidc Police Chowki",
  "area": "Bhavnagar Road",
  "district": "Gondal",
  "state": "Gujarat",
  "pincode": "360002",
  "latitude": "22.28146",
  "longitude": "70.83321",
  "qr": "http://res.cloudinary.com/ddhncnedj/image/upload/v1698247752/cvnqifg5szix1yvr0tfk.png",
  "population": 101801
},
{
  "_id":  "6539279ee0265e4af914b932",
  "name": "Hazira Marine Police Station",
  "area": "Adajan Hajira Road",
  "district": "Surat",
  "state": "Gujarat",
  "pincode": "",
  "latitude": "21.09657",
  "longitude": "72.65087",
  "qr": "http://res.cloudinary.com/ddhncnedj/image/upload/v1698247748/yoibweqovbxq7j7y6kg9.png",
  "population": 4591246
},
{
  "_id":  "6539279ee0265e4af914b933",
  "name": "Hazira Police Station",
  "area": "Hazira Road",
  "district": "Surat",
  "state": "Gujarat",
  "pincode": "",
  "latitude": "21.14657",
  "longitude": "72.66049",
  "qr": "http://res.cloudinary.com/ddhncnedj/image/upload/v1698247751/tohjrl0hia67plevod7k.png",
  "population": 4591246
},
{
  "_id":  "6539279ee0265e4af914b934",
  "name": "Ankleshwar Police Station",
  "area": "NH-64",
  "district": "Amod",
  "state": "Gujarat",
  "pincode": "393001",
  "latitude": "21.6337",
  "longitude": "72.99245",
  "qr": "http://res.cloudinary.com/ddhncnedj/image/upload/v1698247746/kgkupmajjkidzqqzgenu.png",
  "population": 18742
},
{
  "_id":  "6539279ee0265e4af914b935",
  "name": "Ankleshwar Rural Police Station",
  "area": "Ankleshwar Civil Court",
  "district": "Amod",
  "state": "Gujarat",
  "pincode": "393001",
  "latitude": "21.62783",
  "longitude": "73.00896",
  "qr": "http://res.cloudinary.com/ddhncnedj/image/upload/v1698247749/mgt3ojyjw5apttavb1fy.png",
  "population": 18742
},
{
  "_id":  "6539279ee0265e4af914b936",
  "name": "Talod Police Station",
  "area": "Civil Road",
  "district": "Himatnagar",
  "state": "Gujarat",
  "pincode": "",
  "latitude": "23.35132",
  "longitude": "72.94932",
  "qr": "http://res.cloudinary.com/ddhncnedj/image/upload/v1698247746/bnuv0aaawimpjurxczqn.png",
  "population": 60634
},
{
  "_id":  "6539279ee0265e4af914b937",
  "name": "Mangrol Police Station",
  "area": "Sh97",
  "district": "Keshod",
  "state": "Gujarat",
  "pincode": "",
  "latitude": "21.12445",
  "longitude": "70.11995",
  "qr": "http://res.cloudinary.com/ddhncnedj/image/upload/v1698247749/slguxfxshkrsjtj1nx4v.png",
  "population": 68518
},
{
  "_id":  "6539279ee0265e4af914b938",
  "name": "Khanpur Police Station",
  "area": "Bakor Road",
  "district": "Godhra",
  "state": "Gujarat",
  "pincode": "",
  "latitude": "23.34313",
  "longitude": "73.60609",
  "qr": "http://res.cloudinary.com/ddhncnedj/image/upload/v1698247749/ebhfsfj3aydke9zt1tqo.png",
  "population": 131913
},
{
  "_id":  "6539279ee0265e4af914b939",
  "name": "Madiya Police Chowki",
  "area": "SH-5",
  "district": "Himatnagar",
  "state": "Gujarat",
  "pincode": "",
  "latitude": "23.53836",
  "longitude": "73.31244",
  "qr": "http://res.cloudinary.com/ddhncnedj/image/upload/v1698247750/okhxawpzkytxosz0eb88.png",
  "population": 60634
},
{
  "_id":  "6539279ee0265e4af914b93a",
  "name": "Chipwad Police Chowki Valsad",
  "area": "Sri Chamunda",
  "district": "Bilimora",
  "state": "Gujarat",
  "pincode": "396001",
  "latitude": "20.61826",
  "longitude": "72.93246",
  "qr": "http://res.cloudinary.com/ddhncnedj/image/upload/v1698247750/uqzcdogbl0eurklmglbs.png",
  "population": 510879
},
{
  "_id":  "6539279ee0265e4af914b93b",
  "name": "Nayab Police Station",
  "area": "Porbandar Airport Road",
  "district": "Porbandar",
  "state": "Gujarat",
  "pincode": "",
  "latitude": "21.64575",
  "longitude": "69.6567",
  "qr": "http://res.cloudinary.com/ddhncnedj/image/upload/v1698247748/qgdef7oglopygbf8v2nd.png",
  "population": 138872
},
{
  "_id":  "6539279ee0265e4af914b93c",
  "name": "Nayab Police Station",
  "area": "Station Road",
  "district": "Godhra",
  "state": "Gujarat",
  "pincode": "",
  "latitude": "22.77904",
  "longitude": "73.62122",
  "qr": "http://res.cloudinary.com/ddhncnedj/image/upload/v1698247748/gbo151td7kku6w5qzdvv.png",
  "population": 131913
},
{
  "_id":  "6539279ee0265e4af914b93d",
  "name": "Nayab Police Station",
  "area": "Bhagatsinh Road",
  "district": "Gondal",
  "state": "Gujarat",
  "pincode": "",
  "latitude": "22.30003",
  "longitude": "70.79852",
  "qr": "http://res.cloudinary.com/ddhncnedj/image/upload/v1698247748/p4kxusaes92yfpkgqzaa.png",
  "population": 101801
},
{
  "_id":  "6539279ee0265e4af914b93e",
  "name": "Nayab Police Station",
  "area": "Sant Kabir Road",
  "district": "Vadodara",
  "state": "Gujarat",
  "pincode": "",
  "latitude": "22.29674",
  "longitude": "73.21541",
  "qr": "http://res.cloudinary.com/ddhncnedj/image/upload/v1698247748/iv14wf8yvtyimvbe5irw.png",
  "population": 1822221
},
{
  "_id":  "6539279ee0265e4af914b93f",
  "name": "Paliwal Police Station",
  "area": "Sachin GIDC Road 6",
  "district": "Surat",
  "state": "Gujarat",
  "pincode": "",
  "latitude": "21.09204",
  "longitude": "72.86225",
  "qr": "http://res.cloudinary.com/ddhncnedj/image/upload/v1698247752/a8zzuj37quswdpbgkehy.png",
  "population": 4591246
},
{
  "_id":  "6539279ee0265e4af914b940",
  "name": "Vav Police Station",
  "area": "Nh15",
  "district": "Dhanera",
  "state": "Gujarat",
  "pincode": "",
  "latitude": "24.35965",
  "longitude": "71.51637",
  "qr": "http://res.cloudinary.com/ddhncnedj/image/upload/v1698247750/teo7k6ddh7acwdxdj5kw.png",
  "population": 23656
},
{
  "_id":  "6539279ee0265e4af914b941",
  "name": "Shaktinagar Police Chowki",
  "area": "Khodiyar Colony",
  "district": "Jamnagar",
  "state": "Gujarat",
  "pincode": "",
  "latitude": "22.46781",
  "longitude": "70.04811",
  "qr": "http://res.cloudinary.com/ddhncnedj/image/upload/v1698247752/jajpv2r9rgcgpaslpqfj.png",
  "population": 492056
},
{
  "_id":  "6539279ee0265e4af914b942",
  "name": "Sabarmati Police Commissioner Office",
  "area": "Bulakhidas Road",
  "district": "Ahmedabad",
  "state": "Gujarat",
  "pincode": "",
  "latitude": "23.08564",
  "longitude": "72.59127",
  "qr": "http://res.cloudinary.com/ddhncnedj/image/upload/v1698247748/yzqoze1fwh3ynexrelve.png",
  "population": 6357693
},
{
  "_id":  "6539279ee0265e4af914b943",
  "name": "Gundavadi Police Chowki",
  "area": "Canal Road",
  "district": "Gondal",
  "state": "Gujarat",
  "pincode": "",
  "latitude": "22.28881",
  "longitude": "70.80806",
  "qr": "http://res.cloudinary.com/ddhncnedj/image/upload/v1698247748/xabrcbkhu3n2bwww10dp.png",
  "population": 101801
},
{
  "_id":  "6539279ee0265e4af914b944",
  "name": "Bhiloda Police Chowki",
  "area": "SH-10",
  "district": "Himatnagar",
  "state": "Gujarat",
  "pincode": "",
  "latitude": "23.76972",
  "longitude": "73.2406",
  "qr": "http://res.cloudinary.com/ddhncnedj/image/upload/v1698247750/q1y0gcljtcsathgpyvwh.png",
  "population": 60634
},
{
  "_id":  "6539279ee0265e4af914b945",
  "name": "Bhiloda Police Station",
  "area": "SH-10",
  "district": "Himatnagar",
  "state": "Gujarat",
  "pincode": "",
  "latitude": "23.76961",
  "longitude": "73.24053",
  "qr": "http://res.cloudinary.com/ddhncnedj/image/upload/v1698247751/p3scrt15y4xqtf7bmjdo.png",
  "population": 60634
},
{
  "_id":  "6539279ee0265e4af914b946",
  "name": "Police Station Mithapur",
  "area": "NH-51",
  "district": "Dungarpur",
  "state": "Gujarat",
  "pincode": "",
  "latitude": "20.929",
  "longitude": "71.3457",
  "qr": "http://res.cloudinary.com/ddhncnedj/image/upload/v1698247748/lbxsdqxjbg1dskxj4d09.png",
  "population": 6105
},
{
  "_id":  "6539279ee0265e4af914b947",
  "name": "Nava Bilimora Police Station",
  "area": "Karmavir Nagar",
  "district": "Kheda",
  "state": "Gujarat",
  "pincode": "",
  "latitude": "22.71866",
  "longitude": "72.87067",
  "qr": "http://res.cloudinary.com/ddhncnedj/image/upload/v1698247748/eptujh8as8aia1moihc3.png",
  "population": 24767
},
{
  "_id":  "6539279ee0265e4af914b948",
  "name": "Dawrka Police Station",
  "area": "NH151A",
  "district": "Porbandar",
  "state": "Gujarat",
  "pincode": "",
  "latitude": "22.24544",
  "longitude": "68.96431",
  "qr": "http://res.cloudinary.com/ddhncnedj/image/upload/v1698247750/atvqn3tvm4wkm18f28ei.png",
  "population": 138872
},
{
  "_id":  "6539279ee0265e4af914b949",
  "name": "Kasor Out Post Police",
  "area": "Kasor Road",
  "district": "Karamsad",
  "state": "Gujarat",
  "pincode": "",
  "latitude": "22.54928",
  "longitude": "72.77582",
  "qr": "http://res.cloudinary.com/ddhncnedj/image/upload/v1698247750/rvjbph59rdxh05xrsoe8.png",
  "population": 32380
},
{
  "_id":  "6539279ee0265e4af914b94a",
  "name": "Tambu Police Station",
  "area": "Sant Surdas Road",
  "district": "Ahmedabad",
  "state": "Gujarat",
  "pincode": "",
  "latitude": "23.03557",
  "longitude": "72.59294",
  "qr": "http://res.cloudinary.com/ddhncnedj/image/upload/v1698247745/pm8xo1xssv0ejpqvsmz5.png",
  "population": 6357693
},
{
  "_id":  "6539279ee0265e4af914b94b",
  "name": "SRP Tambu Police Chordia Panigate",
  "area": "Gurunathan Mandir",
  "district": "Vadodara",
  "state": "Gujarat",
  "pincode": "",
  "latitude": "22.29745",
  "longitude": "73.21545",
  "qr": "http://res.cloudinary.com/ddhncnedj/image/upload/v1698247744/feu5kll3kqv2igf8whbk.png",
  "population": 1822221
},
{
  "_id":  "6539279ee0265e4af914b94c",
  "name": "Nandasan Police Station",
  "area": "Sh189",
  "district": "Kadi",
  "state": "Gujarat",
  "pincode": "",
  "latitude": "23.37978",
  "longitude": "72.40687",
  "qr": "http://res.cloudinary.com/ddhncnedj/image/upload/v1698247748/qqjqvqjyqnr9icgccjto.png",
  "population": 58066
},
{
  "_id":  "6539279ee0265e4af914b94d",
  "name": "Limkheda Police Station",
  "area": "NH147D",
  "district": "Godhra",
  "state": "Gujarat",
  "pincode": "",
  "latitude": "22.83274",
  "longitude": "73.98735",
  "qr": "http://res.cloudinary.com/ddhncnedj/image/upload/v1698247750/evnoxe4dqeedjutup1ox.png",
  "population": 131913
},
{
  "_id":  "6539279ee0265e4af914b94e",
  "name": "Police Station-Nakhatrana",
  "area": "SH-42",
  "district": "Bhuj",
  "state": "Gujarat",
  "pincode": "",
  "latitude": "23.3446",
  "longitude": "69.2713",
  "qr": "http://res.cloudinary.com/ddhncnedj/image/upload/v1698247750/hhdgzm94qewywgwljlqz.png",
  "population": 133459
},
{
  "_id":  "6539279ee0265e4af914b94f",
  "name": "Hudco Police Chowki",
  "area": "Kothariya Main Road",
  "district": "Gondal",
  "state": "Gujarat",
  "pincode": "",
  "latitude": "22.26302",
  "longitude": "70.81483",
  "qr": "http://res.cloudinary.com/ddhncnedj/image/upload/v1698247749/flrpwjrkqwgmn5vaaqjy.png",
  "population": 101801
},
{
  "_id":  "6539279ee0265e4af914b950",
  "name": "Narsanda Police Station",
  "area": "Narol Naroda Road",
  "district": "Karamsad",
  "state": "Gujarat",
  "pincode": "",
  "latitude": "22.63205",
  "longitude": "72.90004",
  "qr": "http://res.cloudinary.com/ddhncnedj/image/upload/v1698247746/ebrkcjkk9tvlahjtm2hr.png",
  "population": 32380
},
{
  "_id":  "6539279ee0265e4af914b951",
  "name": "Rangpur Police Station",
  "area": "Rangapur Road",
  "district": "Jetpur",
  "state": "Gujarat",
  "pincode": "",
  "latitude": "22.37541",
  "longitude": "74.16789",
  "qr": "http://res.cloudinary.com/ddhncnedj/image/upload/v1698247743/vxcycmshr3c556ij0llv.png",
  "population": 8446
},
{
  "_id":  "6539279ee0265e4af914b952",
  "name": "Amraiwadi Police Station",
  "area": "Amraiwadi Village Road",
  "district": "Ahmedabad",
  "state": "Gujarat",
  "pincode": "",
  "latitude": "23.00667",
  "longitude": "72.62486",
  "qr": "http://res.cloudinary.com/ddhncnedj/image/upload/v1698247745/y5llfzt69fi3pctkirqa.png",
  "population": 6357693
},
{
  "_id":  "6539279ee0265e4af914b953",
  "name": "Ghodasar Police Station",
  "area": "Ghodasar Road",
  "district": "Ahmedabad",
  "state": "Gujarat",
  "pincode": "",
  "latitude": "22.98649",
  "longitude": "72.61141",
  "qr": "http://res.cloudinary.com/ddhncnedj/image/upload/v1698247752/txbtqgxwplg7wlmsptvu.png",
  "population": 6357693
},
{
  "_id":  "6539279ee0265e4af914b954",
  "name": "Ranpur Police Station",
  "area": "Ranpur 382245",
  "district": "Dhandhuka",
  "state": "Gujarat",
  "pincode": "",
  "latitude": "22.35345",
  "longitude": "71.71433",
  "qr": "http://res.cloudinary.com/ddhncnedj/image/upload/v1698247745/m4yvdr7v87varlchmcn3.png",
  "population": 30049
},
{
  "_id":  "6539279ee0265e4af914b955",
  "name": "Gotri Police Station",
  "area": "Gotri Road",
  "district": "Vadodara",
  "state": "Gujarat",
  "pincode": "",
  "latitude": "22.31001",
  "longitude": "73.13865",
  "qr": "http://res.cloudinary.com/ddhncnedj/image/upload/v1698247750/x8nbgtslx9qluhttzmzu.png",
  "population": 1822221
},
{
  "_id":  "6539279ee0265e4af914b956",
  "name": "Gotri Police Station",
  "area": "Gotri To Sindhrot Road",
  "district": "Vadodara",
  "state": "Gujarat",
  "pincode": "",
  "latitude": "22.31824",
  "longitude": "73.12367",
  "qr": "http://res.cloudinary.com/ddhncnedj/image/upload/v1698247747/x8jtf7mzi5wml84vmniy.png",
  "population": 1822221
},
{
  "_id":  "6539279ee0265e4af914b957",
  "name": "Gotri Road Police Station",
  "area": "S K Chaudhari Marg",
  "district": "Vadodara",
  "state": "Gujarat",
  "pincode": "",
  "latitude": "22.31338",
  "longitude": "73.1452",
  "qr": "http://res.cloudinary.com/ddhncnedj/image/upload/v1698247749/ng5xudcztunsjyxvwnvg.png",
  "population": 1822221
},
{
  "_id":  "6539279ee0265e4af914b958",
  "name": "Kanij Police Chowki",
  "area": "SH-3",
  "district": "Kheda",
  "state": "Gujarat",
  "pincode": "",
  "latitude": "22.87473",
  "longitude": "72.7281",
  "qr": "http://res.cloudinary.com/ddhncnedj/image/upload/v1698247750/kimdqccxwpoxmekvy62y.png",
  "population": 24767
},
{
  "_id":  "6539279ee0265e4af914b959",
  "name": "Bakrol Road Post Police Chowki",
  "area": "NH751",
  "district": "Ahmedabad",
  "state": "Gujarat",
  "pincode": "",
  "latitude": "22.93649",
  "longitude": "72.49765",
  "qr": "http://res.cloudinary.com/ddhncnedj/image/upload/v1698247750/ltco7xyizj4h4fonv179.png",
  "population": 6357693
},
{
  "_id":  "6539279ee0265e4af914b95a",
  "name": "Police Station Valod",
  "area": "Sh187 Ambaji Street",
  "district": "Navsari",
  "state": "Gujarat",
  "pincode": "",
  "latitude": "21.04807",
  "longitude": "73.2621",
  "qr": "http://res.cloudinary.com/ddhncnedj/image/upload/v1698247749/v3rd9ciiyvci3khxrt95.png",
  "population": 171109
},
{
  "_id":  "6539279ee0265e4af914b95b",
  "name": "Kamalpura Police Station",
  "area": "Kamalpura Road",
  "district": "Dhanera",
  "state": "Gujarat",
  "pincode": "",
  "latitude": "24.17685",
  "longitude": "72.44351",
  "qr": "http://res.cloudinary.com/ddhncnedj/image/upload/v1698247745/zvq8m9zuyqmfau60spko.png",
  "population": 23656
},
{
  "_id":  "6539279ee0265e4af914b95c",
  "name": "Sihor Police Station",
  "area": "Parmat St",
  "district": "Bhavnagar",
  "state": "Gujarat",
  "pincode": "",
  "latitude": "21.7137",
  "longitude": "71.96008",
  "qr": "http://res.cloudinary.com/ddhncnedj/image/upload/v1698247747/l6bi4fmvedfznykfgv1q.png",
  "population": 605882
},
{
  "_id":  "6539279ee0265e4af914b95d",
  "name": "Sagbara Police Station",
  "area": "NH753B",
  "district": "Dabhoi",
  "state": "Gujarat",
  "pincode": "",
  "latitude": "21.54418",
  "longitude": "73.79127",
  "qr": "http://res.cloudinary.com/ddhncnedj/image/upload/v1698247745/wwfntfc4gdldvaa0j7vs.png",
  "population": 56253
},
{
  "_id":  "6539279ee0265e4af914b95e",
  "name": "Juhapura Police Chowki",
  "area": "Jawaharlal Nehru Road",
  "district": "Ahmedabad",
  "state": "Gujarat",
  "pincode": "",
  "latitude": "22.99355",
  "longitude": "72.52677",
  "qr": "http://res.cloudinary.com/ddhncnedj/image/upload/v1698247746/tliu3z6toib5qe9qiieq.png",
  "population": 6357693
},
{
  "_id":  "6539279ee0265e4af914b95f",
  "name": "Karnawati Police Chowki",
  "area": "Lambha Vatva Road",
  "district": "Ahmedabad",
  "state": "Gujarat",
  "pincode": "",
  "latitude": "22.94659",
  "longitude": "72.59639",
  "qr": "http://res.cloudinary.com/ddhncnedj/image/upload/v1698247752/obxdaonk9pqvp3hehepf.png",
  "population": 6357693
},
{
  "_id":  "6539279ee0265e4af914b960",
  "name": "Police Station-Samakhiyali",
  "area": "Near Nh8a",
  "district": "Halvad",
  "state": "Gujarat",
  "pincode": "",
  "latitude": "23.3073",
  "longitude": "70.4967",
  "qr": "http://res.cloudinary.com/ddhncnedj/image/upload/v1698247743/lmhcpycuexe0cfxughfp.png",
  "population": 26205
},
{
  "_id":  "6539279ee0265e4af914b961",
  "name": "Kavat Police Station Kadipani",
  "area": "SH-62",
  "district": "Jetpur",
  "state": "Gujarat",
  "pincode": "",
  "latitude": "22.01163",
  "longitude": "74.09178",
  "qr": "http://res.cloudinary.com/ddhncnedj/image/upload/v1698247745/d8xkag8crggfz5pyuhlg.png",
  "population": 8446
},
{
  "_id":  "6539279ee0265e4af914b962",
  "name": "Bapod Police Station",
  "area": "Swarnim Gujarat Ring Road",
  "district": "Vadodara",
  "state": "Gujarat",
  "pincode": "",
  "latitude": "22.30551",
  "longitude": "73.23887",
  "qr": "http://res.cloudinary.com/ddhncnedj/image/upload/v1698247750/twyj2rl3zfrtpwm7mrw1.png",
  "population": 1822221
},
{
  "_id":  "6539279ee0265e4af914b963",
  "name": "Banba Gate Police Chowki",
  "area": "SH-97",
  "district": "Jetalsar",
  "state": "Gujarat",
  "pincode": "",
  "latitude": "21.74073",
  "longitude": "70.28392",
  "qr": "http://res.cloudinary.com/ddhncnedj/image/upload/v1698247750/vsnsdnqm4yv4aiywotjl.png",
  "population": 14771
},