[{
    "_id": {
      "$oid": "6539279ee0265e4af914b846"
    },
    "name": "Police Station-Limbdi",
    "area": "SH-62",
    "district": "Jhalod",
    "state": "Gujarat",
    "pincode": "389180",
    "latitude": 23.05244,
    "longitude": 74.30577
  },
  {
    "_id": {
      "$oid": "6539279ee0265e4af914b847"
    },
    "name": "Varachha Police Station",
    "area": "Varachha Road",
    "district": "Surat",
    "state": "Gujarat",
    "pincode": "395006",
    "latitude": 21.209634223,
    "longitude": 72.849761241
  },
  {
    "_id": {
      "$oid": "6539279ee0265e4af914b848"
    },
    "name": "Police Station-Rander",
    "area": "Khidmat Nagar",
    "district": "Rander",
    "state": "Gujarat",
    "pincode": "395005",
    "latitude": 21.218334045,
    "longitude": 72.7945853
  },
  {
    "_id": {
      "$oid": "6539279ee0265e4af914b849"
    },
    "name": "Gayakwad Haveli",
    "area": "Gaikwad Haveli",
    "district": "Raikhad",
    "state": "Gujarat",
    "pincode": "380001",
    "latitude": 23.01599,
    "longitude": 72.5809
  },
  {
    "_id": {
      "$oid": "6539279ee0265e4af914b84a"
    },
    "name": "Amroli Police Station",
    "area": "Surat",
    "district": "394107",
    "state": "Gujarat",
    "pincode": "394107",
    "latitude": 21.2475467002,
    "longitude": 72.8515746286
  },
  {
    "_id": {
      "$oid": "6539279ee0265e4af914b84b"
    },
    "name": "Chhaya Police Chowki",
    "area": "Indra Gandhi Marg Chhaya",
    "district": "360578",
    "state": "Gujarat",
    "pincode": "Porbandar 360578",
    "latitude": 21.628061,
    "longitude": 69.634724
  },
  {
    "_id": {
      "$oid": "6539279ee0265e4af914b84c"
    },
    "name": "Rustam Pura Police Chowki",
    "area": "Hazrat Akbar Shahid Tekra",
    "district": "Rustampura",
    "state": "Gujarat",
    "pincode": "395002",
    "latitude": 21.1889940231,
    "longitude": 72.8330562923
  },
  {
    "_id": {
      "$oid": "6539279ee0265e4af914b84d"
    },
    "name": "Chhapi Police Station",
    "area": "Vadgam 385210",
    "district": "Vadgam 385210",
    "state": "Gujarat",
    "pincode": "Vadgam 385210",
    "latitude": 24.02959,
    "longitude": 72.39973
  },
  {
    "_id": {
      "$oid": "6539279ee0265e4af914b84e"
    },
    "name": "Sachin Police Station",
    "area": "SH 6",
    "district": "Nagar",
    "state": "Gujarat",
    "pincode": "394230",
    "latitude": 21.086984,
    "longitude": 72.881619
  },
  {
    "_id": {
      "$oid": "6539279ee0265e4af914b84f"
    },
    "name": "Naroda Police Station",
    "area": "Naroda Road",
    "district": "Naroda",
    "state": "Gujarat",
    "pincode": "382330",
    "latitude": 23.098269,
    "longitude": 72.667129
  },
  {
    "_id": {
      "$oid": "6539279ee0265e4af914b850"
    },
    "name": "Naroda Police Check Post",
    "area": "Ahmedabad",
    "district": "Gujarat",
    "state": "Gujarat",
    "pincode": "382330",
    "latitude": 23.064274,
    "longitude": 72.643332
  },
  {
    "_id": {
      "$oid": "6539279ee0265e4af914b851"
    },
    "name": "Zila Police Adhikari Kachahery",
    "area": "Hariyana Plot 119",
    "district": "Para",
    "state": "Gujarat",
    "pincode": "364001",
    "latitude": 21.769171,
    "longitude": 72.15039
  },
  {
    "_id": {
      "$oid": "6539279ee0265e4af914b852"
    },
    "name": "Police Station-Suigam",
    "area": "SH-127",
    "district": "Vav",
    "state": "Gujarat",
    "pincode": "385570",
    "latitude": 24.15644156,
    "longitude": 71.35487701
  },
  {
    "_id": {
      "$oid": "6539279ee0265e4af914b853"
    },
    "name": "Police Station-Bantwa",
    "area": "Bantwa Pajod Road",
    "district": "Manavadar",
    "state": "Gujarat",
    "pincode": "362620",
    "latitude": 21.49081,
    "longitude": 70.07472
  },
  {
    "_id": {
      "$oid": "6539279ee0265e4af914b854"
    },
    "name": "Mahila Police Station",
    "area": "Mithakhali",
    "district": "Ahmedabad",
    "state": "Gujarat",
    "pincode": "India",
    "latitude": 23.0315661,
    "longitude": 72.5640245
  },
  {
    "_id": {
      "$oid": "6539279ee0265e4af914b855"
    },
    "name": "Police Station-Bodeli",
    "area": "Sankheda",
    "district": "Gujarat",
    "state": "Gujarat",
    "pincode": "India",
    "latitude": 22.2714679067,
    "longitude": 73.71647983
  },
  {
    "_id": {
      "$oid": "6539279ee0265e4af914b856"
    },
    "name": "Samta Police Chowki",
    "area": "Samta Road",
    "district": "Vadodara",
    "state": "Gujarat",
    "pincode": "390003",
    "latitude": 22.32432,
    "longitude": 73.148399
  },
  {
    "_id": {
      "$oid": "6539279ee0265e4af914b857"
    },
    "name": "SRP GP  9 Makarpura Rod Vadodara",
    "area": "Vadodara",
    "district": "Gujarat",
    "state": "Gujarat",
    "pincode": "India",
    "latitude": 22.2615544896,
    "longitude": 73.2003408029
  },
  {
    "_id": {
      "$oid": "6539279ee0265e4af914b858"
    },
    "name": "Bhavnagar Police",
    "area": "DSP office",
    "district": "navapar",
    "state": "Gujarat",
    "pincode": "364001",
    "latitude": 21.7704391,
    "longitude": 72.1423721
  },
  {
    "_id": {
      "$oid": "6539279ee0265e4af914b859"
    },
    "name": "Limbayat Police Station",
    "area": "Rustam Bagh Road",
    "district": "Limbayat",
    "state": "Gujarat",
    "pincode": "394210",
    "latitude": 21.175923,
    "longitude": 72.856863
  },
  {
    "_id": {
      "$oid": "6539279ee0265e4af914b85a"
    },
    "name": "Police Station Bapunagar",
    "area": "Opposite Siddhi Vinayk Ganesh Mandir",
    "district": "Bapunagar",
    "state": "Gujarat",
    "pincode": "380024",
    "latitude": 23.03247,
    "longitude": 72.631441
  },
  {
    "_id": {
      "$oid": "6539279ee0265e4af914b85b"
    },
    "name": "Police Chawki",
    "area": "Radhanpur 385340",
    "district": "Radhanpur 385340",
    "state": "Gujarat",
    "pincode": "Radhanpur 385340",
    "latitude": 23.833967,
    "longitude": 71.605517
  },
  {
    "_id": {
      "$oid": "6539279ee0265e4af914b85c"
    },
    "name": "Katargam Police Station",
    "area": "Surat",
    "district": "Gujarat",
    "state": "Gujarat",
    "pincode": "395004",
    "latitude": 21.2233324672,
    "longitude": 72.8331131745
  },
  {
    "_id": {
      "$oid": "6539279ee0265e4af914b85d"
    },
    "name": "Police Station-Udepur Road",
    "area": "Devgadh Baria",
    "district": "Gujarat",
    "state": "Gujarat",
    "pincode": "389380",
    "latitude": 22.70014,
    "longitude": 73.91466
  },
  {
    "_id": {
      "$oid": "6539279ee0265e4af914b85e"
    },
    "name": "Paliwal Police Chowky",
    "area": "GIDC",
    "district": "Sachin",
    "state": "Gujarat",
    "pincode": "394230",
    "latitude": 21.092055,
    "longitude": 72.862293
  },
  {
    "_id": {
      "$oid": "6539279ee0265e4af914b85f"
    },
    "name": "Police Station Jamnager",
    "area": "Victoria Bridge Road",
    "district": "361120",
    "state": "Gujarat",
    "pincode": "Jamnagar 361120",
    "latitude": 22.475959,
    "longitude": 70.095408
  },
  {
    "_id": {
      "$oid": "6539279ee0265e4af914b860"
    },
    "name": "Police Chowki Malaviya Nagar",
    "area": "Near Maudi Chowkdi",
    "district": "Rajkot",
    "state": "Gujarat",
    "pincode": "",
    "latitude": 22.2697801,
    "longitude": 70.788699
  },
  {
    "_id": {
      "$oid": "6539279ee0265e4af914b861"
    },
    "name": "Police Station-Upleta",
    "area": "Upleta 360490",
    "district": "Upleta 360490",
    "state": "Gujarat",
    "pincode": "Upleta 360490",
    "latitude": 21.74757,
    "longitude": 70.27513
  },
  {
    "_id": {
      "$oid": "6539279ee0265e4af914b862"
    },
    "name": "Police Station-Vansda",
    "area": "Bansda",
    "district": "Gujarat",
    "state": "Gujarat",
    "pincode": "396580",
    "latitude": 20.76203,
    "longitude": 73.36238
  },
  {
    "_id": {
      "$oid": "6539279ee0265e4af914b863"
    },
    "name": "Khokhra Police Station",
    "area": "Ahmedabad",
    "district": "",
    "state": "Gujarat",
    "pincode": "India",
    "latitude": 23.0013222,
    "longitude": 72.6205328
  },
  {
    "_id": {
      "$oid": "6539279ee0265e4af914b864"
    },
    "name": "DSP Office",
    "area": "Swami Narayan Marg",
    "district": "370001",
    "state": "Gujarat",
    "pincode": "Bhuj 370001",
    "latitude": 23.24281,
    "longitude": 69.666435
  },
  {
    "_id": {
      "$oid": "6539279ee0265e4af914b865"
    },
    "name": "Shaher Kotada Police Station",
    "area": "Ahmedabad",
    "district": "380002",
    "state": "Gujarat",
    "pincode": "380002",
    "latitude": 23.0333,
    "longitude": 72.6167
  },
  {
    "_id": {
      "$oid": "6539279ee0265e4af914b866"
    },
    "name": "Thana-Badhrav Janpadh-Raybareli",
    "area": "NH-24B",
    "district": "229301",
    "state": "Gujarat",
    "pincode": "Bachhrawan 229301",
    "latitude": 26.47015,
    "longitude": 81.11172
  },
  {
    "_id": {
      "$oid": "6539279ee0265e4af914b867"
    },
    "name": "Bhachau Police Station",
    "area": "Bhachau 370140",
    "district": "Bhachau 370140",
    "state": "Gujarat",
    "pincode": "Bhachau 370140",
    "latitude": 23.288376,
    "longitude": 70.343934
  },
  {
    "_id": {
      "$oid": "6539279ee0265e4af914b868"
    },
    "name": "Laskana Police Chowki",
    "area": "Laskana",
    "district": "Surat",
    "state": "Gujarat",
    "pincode": "395013",
    "latitude": 21.251337605,
    "longitude": 72.9277244587
  },
  {
    "_id": {
      "$oid": "6539279ee0265e4af914b869"
    },
    "name": "Adazan Police Station",
    "area": "LP Savani Road",
    "district": "Ram",
    "state": "Gujarat",
    "pincode": "395009",
    "latitude": 21.190543,
    "longitude": 72.794617
  },
  {
    "_id": {
      "$oid": "6539279ee0265e4af914b86a"
    },
    "name": "Thangadh Police Station",
    "area": "Chotila road",
    "district": "",
    "state": "Gujarat",
    "pincode": "Thangadh",
    "latitude": 22.58456,
    "longitude": 71.2048
  },
  {
    "_id": {
      "$oid": "6539279ee0265e4af914b86b"
    },
    "name": "Police Pared Ground , Anand",
    "area": "Anand",
    "district": "",
    "state": "Gujarat",
    "pincode": "",
    "latitude": 22.5427271,
    "longitude": 72.9618235
  },
  {
    "_id": {
      "$oid": "6539279ee0265e4af914b86c"
    },
    "name": "Police Station Kushtagi",
    "area": "SH 30",
    "district": "583277",
    "state": "Gujarat",
    "pincode": "Kushtagi 583277",
    "latitude": 15.752983,
    "longitude": 76.196155
  },
  {
    "_id": {
      "$oid": "6539279ee0265e4af914b86d"
    },
    "name": "Police Chowki",
    "area": "Jamnagar 361001",
    "district": "Jamnagar 361001",
    "state": "Gujarat",
    "pincode": "Jamnagar 361001",
    "latitude": 22.4642284,
    "longitude": 70.0799917
  },
  {
    "_id": {
      "$oid": "6539279ee0265e4af914b86e"
    },
    "name": "Vejalpur Police Chowki",
    "area": "Dr Jivraj Mehta Marg",
    "district": "Ahmedabad",
    "state": "Gujarat",
    "pincode": "380051",
    "latitude": 23.004082,
    "longitude": 72.522669
  },
  {
    "_id": {
      "$oid": "6539279ee0265e4af914b86f"
    },
    "name": "Bhagol Police Station-Naroda",
    "area": "Galaxy Road",
    "district": "Ahmedabad",
    "state": "Gujarat",
    "pincode": "382330",
    "latitude": 23.0747484,
    "longitude": 72.6553748
  },
  {
    "_id": {
      "$oid": "6539279ee0265e4af914b870"
    },
    "name": "Haveli Police Stations",
    "area": "Gaikwad Haveli Road",
    "district": "Ahmedabad",
    "state": "Gujarat",
    "pincode": "380001",
    "latitude": 23.016943,
    "longitude": 72.581002
  },
  {
    "_id": {
      "$oid": "6539279ee0265e4af914b871"
    },
    "name": "Valsad DSP Office",
    "area": "SH-6",
    "district": "",
    "state": "Gujarat",
    "pincode": "Valsad",
    "latitude": 20.60681214,
    "longitude": 72.929547089
  },
  {
    "_id": {
      "$oid": "6539279ee0265e4af914b872"
    },
    "name": "Shirpur Rural",
    "area": "Shirpur Chopda Highway",
    "district": "Shirpur",
    "state": "Gujarat",
    "pincode": "Shirpur 425421",
    "latitude": 21.27183,
    "longitude": 75.08679
  },
  {
    "_id": {
      "$oid": "6539279ee0265e4af914b873"
    },
    "name": "Police Station-Shirpur",
    "area": "NH-3",
    "district": "Shirpur",
    "state": "Gujarat",
    "pincode": "425405",
    "latitude": 21.346710885,
    "longitude": 74.879744285
  },
  {
    "_id": {
      "$oid": "6539279ee0265e4af914b874"
    },
    "name": "Police Station-Gandhidham",
    "area": "Gandhidham",
    "district": "Gandhidham",
    "state": "Gujarat",
    "pincode": "370201",
    "latitude": 23.07061,
    "longitude": 70.13524
  },
  {
    "_id": {
      "$oid": "6539279ee0265e4af914b875"
    },
    "name": "Jarod Outpost Police Station",
    "area": "Vaghodia INA",
    "district": "Vaghodia INA",
    "state": "Gujarat",
    "pincode": "391510",
    "latitude": 22.440342,
    "longitude": 73.337037
  },
  {
    "_id": {
      "$oid": "6539279ee0265e4af914b876"
    },
    "name": "Vidhyanagar Police Station",
    "area": "Vallabh Vidhyanagar 388121",
    "district": "Vallabh Vidhyanagar 388121",
    "state": "Gujarat",
    "pincode": "Vallabh Vidhyanagar 388121",
    "latitude": 22.549759,
    "longitude": 72.932117
  },
  {
    "_id": {
      "$oid": "6539279ee0265e4af914b877"
    },
    "name": "Adipur Police Station",
    "area": "SH-46",
    "district": "370205",
    "state": "Gujarat",
    "pincode": "Gandhidham 370205",
    "latitude": 23.071502,
    "longitude": 70.076669
  },
  {
    "_id": {
      "$oid": "6539279ee0265e4af914b878"
    },
    "name": "Godhra Saher Police Station",
    "area": "Godhra City",
    "district": "Road",
    "state": "Gujarat",
    "pincode": "",
    "latitude": 22.77426,
    "longitude": 73.62528
  },
  {
    "_id": {
      "$oid": "6539279ee0265e4af914b879"
    },
    "name": "Pith Police Chowki",
    "area": "Lal Darwaja Road",
    "district": "Chakla",
    "state": "Gujarat",
    "pincode": "",
    "latitude": 22.31976,
    "longitude": 72.62015
  },
  {
    "_id": {
      "$oid": "6539279ee0265e4af914b87a"
    },
    "name": "Laxman Nagar Police Satation",
    "area": "Varacha Road",
    "district": "Society",
    "state": "Gujarat",
    "pincode": "",
    "latitude": 21.20938,
    "longitude": 72.84959
  },
  {
    "_id": {
      "$oid": "6539279ee0265e4af914b87b"
    },
    "name": "Jivraj Park Police Chowki",
    "area": "132 Feet Road",
    "district": "Ahmedabad",
    "state": "Gujarat",
    "pincode": "380051",
    "latitude": 23.00078,
    "longitude": 72.53557
  },
  {
    "_id": {
      "$oid": "6539279ee0265e4af914b87c"
    },
    "name": "Police Station Bhavnagar",
    "area": "Jail Road",
    "district": "Devbagh",
    "state": "Gujarat",
    "pincode": "",
    "latitude": 21.7674,
    "longitude": 72.13981
  },
  {
    "_id": {
      "$oid": "6539279ee0265e4af914b87d"
    },
    "name": "Bhavnagar Police Station",
    "area": "Bus Station Road",
    "district": "Panwadi",
    "state": "Gujarat",
    "pincode": "",
    "latitude": 21.76926,
    "longitude": 72.13507
  },
  {
    "_id": {
      "$oid": "6539279ee0265e4af914b87e"
    },
    "name": "Kruti Mandir Police Station",
    "area": "SVP Road",
    "district": "Porbandar",
    "state": "Gujarat",
    "pincode": "360575",
    "latitude": 21.6421,
    "longitude": 69.60506
  },
  {
    "_id": {
      "$oid": "6539279ee0265e4af914b87f"
    },
    "name": "Sanand Police Station",
    "area": "SH-17",
    "district": "Sanand",
    "state": "Gujarat",
    "pincode": "382110",
    "latitude": 22.98796,
    "longitude": 72.38623
  },
  {
    "_id": {
      "$oid": "6539279ee0265e4af914b880"
    },
    "name": "Police Station Kalavad",
    "area": "Dhoraji Road",
    "district": "Of",
    "state": "Gujarat",
    "pincode": "",
    "latitude": 22.19704,
    "longitude": 70.38424
  },
  {
    "_id": {
      "$oid": "6539279ee0265e4af914b881"
    },
    "name": "Visnagar Police Station",
    "area": "SH-130",
    "district": "Ganjbazar",
    "state": "Gujarat",
    "pincode": "",
    "latitude": 23.70634,
    "longitude": 72.54094
  },
  {
    "_id": {
      "$oid": "6539279ee0265e4af914b882"
    },
    "name": "Visnagar Police Station",
    "area": "Sh130",
    "district": "Lake",
    "state": "Gujarat",
    "pincode": "",
    "latitude": 23.69721,
    "longitude": 72.55261
  },
  {
    "_id": {
      "$oid": "6539279ee0265e4af914b883"
    },
    "name": "Vijapur Police Chowki",
    "area": "Main Road",
    "district": "Bharucha",
    "state": "Gujarat",
    "pincode": "392001",
    "latitude": 21.69093,
    "longitude": 72.97616
  },
  {
    "_id": {
      "$oid": "6539279ee0265e4af914b884"
    },
    "name": "Mehsana Police Station",
    "area": "Station Road",
    "district": "Mahesana",
    "state": "Gujarat",
    "pincode": "384001",
    "latitude": 23.60309,
    "longitude": 72.39193
  },
  {
    "_id": {
      "$oid": "6539279ee0265e4af914b885"
    },
    "name": "Karjan Police Station",
    "area": "Ranjit Nagar",
    "district": "Station",
    "state": "Gujarat",
    "pincode": "",
    "latitude": 22.05427,
    "longitude": 73.11276
  },
  {
    "_id": {
      "$oid": "6539279ee0265e4af914b886"
    },
    "name": "Dabhoi Police Station",
    "area": "Station Road",
    "district": "Dabhoi",
    "state": "Gujarat",
    "pincode": "391110",
    "latitude": 22.13784,
    "longitude": 73.41936
  },
  {
    "_id": {
      "$oid": "6539279ee0265e4af914b887"
    },
    "name": "Police Station Dabhoi",
    "area": "Government Hospital Road",
    "district": "Dabhoi",
    "state": "Gujarat",
    "pincode": "391110",
    "latitude": 22.13136,
    "longitude": 73.42573
  },
  {
    "_id": {
      "$oid": "6539279ee0265e4af914b888"
    },
    "name": "Dabhan Chokadi Police Chowki",
    "area": "Narol Naroda Road",
    "district": "Taluka",
    "state": "Gujarat",
    "pincode": "",
    "latitude": 22.70707,
    "longitude": 72.82646
  },
  {
    "_id": {
      "$oid": "6539279ee0265e4af914b889"
    },
    "name": "Police Station Porbandar",
    "area": "Nh8b",
    "district": "Nehru",
    "state": "Gujarat",
    "pincode": "",
    "latitude": 21.63929,
    "longitude": 69.62317
  },
  {
    "_id": {
      "$oid": "6539279ee0265e4af914b88a"
    },
    "name": "Police Station-Porbandar",
    "area": "Swami Dayanand Saraswati Road",
    "district": "Bazar",
    "state": "Gujarat",
    "pincode": "",
    "latitude": 21.64001,
    "longitude": 69.60552
  },
  {
    "_id": {
      "$oid": "6539279ee0265e4af914b88b"
    },
    "name": "Porbandar City Police Station",
    "area": "Station Road",
    "district": "Plot",
    "state": "Gujarat",
    "pincode": "",
    "latitude": 21.64221,
    "longitude": 69.61426
  },
  {
    "_id": {
      "$oid": "6539279ee0265e4af914b88c"
    },
    "name": "Bhalka Police Chowki",
    "area": "Bhalka Road",
    "district": "Veraval",
    "state": "Gujarat",
    "pincode": "362268",
    "latitude": 20.91047,
    "longitude": 70.37855
  },
  {
    "_id": {
      "$oid": "6539279ee0265e4af914b88d"
    },
    "name": "Mahuva Police Station",
    "area": "Sh35",
    "district": "Shala",
    "state": "Gujarat",
    "pincode": "",
    "latitude": 21.09231,
    "longitude": 71.76921
  },
  {
    "_id": {
      "$oid": "6539279ee0265e4af914b88e"
    },
    "name": "Police Station Raigadh",
    "area": "Raigadh",
    "district": "Sabarkadha",
    "state": "Gujarat",
    "pincode": "",
    "latitude": 23.60324,
    "longitude": 73.17978
  },
  {
    "_id": {
      "$oid": "6539279ee0265e4af914b88f"
    },
    "name": "Police Station-Bhachau",
    "area": "Nh8a Kutch Road",
    "district": "370140",
    "state": "Gujarat",
    "pincode": "",
    "latitude": 23.28819,
    "longitude": 70.34406
  },
  {
    "_id": {
      "$oid": "6539279ee0265e4af914b890"
    },
    "name": "Police Station Bodeli",
    "area": "Bodeli Road",
    "district": "Hospital",
    "state": "Gujarat",
    "pincode": "",
    "latitude": 22.27145,
    "longitude": 73.71656
  },
  {
    "_id": {
      "$oid": "6539279ee0265e4af914b891"
    },
    "name": "Kalwa Chowk Police Chowki",
    "area": "M G Road",
    "district": "Kadiwad",
    "state": "Gujarat",
    "pincode": "",
    "latitude": 21.5138,
    "longitude": 70.46319
  },
  {
    "_id": {
      "$oid": "6539279ee0265e4af914b892"
    },
    "name": "Sheth Wadana Police Station",
    "area": "SH-94",
    "district": "Vadala",
    "state": "Gujarat",
    "pincode": "",
    "latitude": 22.03927,
    "longitude": 70.1246
  },
  {
    "_id": {
      "$oid": "6539279ee0265e4af914b893"
    },
    "name": "Khodiyar Police Station",
    "area": "Swami Vivekanand Road",
    "district": "Raipur",
    "state": "Gujarat",
    "pincode": "",
    "latitude": 23.01733,
    "longitude": 72.59439
  },
  {
    "_id": {
      "$oid": "6539279ee0265e4af914b894"
    },
    "name": "Darbargadh Police Chowki",
    "area": "Aashapura Road",
    "district": "Jamnagar",
    "state": "Gujarat",
    "pincode": "361001",
    "latitude": 22.46456,
    "longitude": 70.07991
  },
  {
    "_id": {
      "$oid": "6539279ee0265e4af914b895"
    },
    "name": "Sayla Police Station",
    "area": "Ahmedabad Rajkot Highway",
    "district": "363430",
    "state": "Gujarat",
    "pincode": "",
    "latitude": 22.53801,
    "longitude": 71.48053
  },
  {
    "_id": {
      "$oid": "6539279ee0265e4af914b896"
    },
    "name": "Police Station Olpad",
    "area": "Sh6 Surat Road",
    "district": "394335",
    "state": "Gujarat",
    "pincode": "",
    "latitude": 21.33759,
    "longitude": 72.75098
  },
  {
    "_id": {
      "$oid": "6539279ee0265e4af914b897"
    },
    "name": "Amroli Police Station",
    "area": "Sayan Road",
    "district": "Surat",
    "state": "Gujarat",
    "pincode": "394107",
    "latitude": 21.23821,
    "longitude": 72.84861
  },
  {
    "_id": {
      "$oid": "6539279ee0265e4af914b898"
    },
    "name": "Amroli Police Station",
    "area": "Amroli Road",
    "district": "Surat",
    "state": "Gujarat",
    "pincode": "394107",
    "latitude": 21.24494,
    "longitude": 72.85113
  },
  {
    "_id": {
      "$oid": "6539279ee0265e4af914b899"
    },
    "name": "Amroli Police Station",
    "area": "Amroli Sayan Road",
    "district": "Kosad",
    "state": "Gujarat",
    "pincode": "",
    "latitude": 21.26532,
    "longitude": 72.84643
  },
  {
    "_id": {
      "$oid": "6539279ee0265e4af914b89a"
    },
    "name": "Jhalod Police Station",
    "area": "Jhalod Road",
    "district": "Court",
    "state": "Gujarat",
    "pincode": "",
    "latitude": 23.1046,
    "longitude": 74.15825
  },
  {
    "_id": {
      "$oid": "6539279ee0265e4af914b89b"
    },
    "name": "Gandhidham Police Station",
    "area": "Near Collector Road",
    "district": "370205",
    "state": "Gujarat",
    "pincode": "",
    "latitude": 23.07073,
    "longitude": 70.13519
  },
  {
    "_id": {
      "$oid": "6539279ee0265e4af914b89c"
    },
    "name": "Gandhidham Railway Police Station",
    "area": "Station Road",
    "district": "370205",
    "state": "Gujarat",
    "pincode": "",
    "latitude": 23.06894,
    "longitude": 70.14692
  },
  {
    "_id": {
      "$oid": "6539279ee0265e4af914b89d"
    },
    "name": "Gandhidham Division Police Station",
    "area": "Adipur Road",
    "district": "370203",
    "state": "Gujarat",
    "pincode": "",
    "latitude": 23.06345,
    "longitude": 70.12895
  },
  {
    "_id": {
      "$oid": "6539279ee0265e4af914b89e"
    },
    "name": "Police Station-Manjal",
    "area": "SH-42",
    "district": "Nakhatrana",
    "state": "Gujarat",
    "pincode": "370030",
    "latitude": 23.2352,
    "longitude": 69.4035
  },
  {
    "_id": {
      "$oid": "6539279ee0265e4af914b89f"
    },
    "name": "Kalikund Police Chowki",
    "area": "NH751",
    "district": "Dholka",
    "state": "Gujarat",
    "pincode": "382225",
    "latitude": 22.7418,
    "longitude": 72.4493
  },
  {
    "_id": {
      "$oid": "6539279ee0265e4af914b8a0"
    },
    "name": "Lunawada Police Station",
    "area": "SH-5",
    "district": "389230",
    "state": "Gujarat",
    "pincode": "",
    "latitude": 23.12537,
    "longitude": 73.60547
  },
  {
    "_id": {
      "$oid": "6539279ee0265e4af914b8a1"
    },
    "name": "Police Station, Lunawada",
    "area": "Nagar Seva Sadan",
    "district": "Seva",
    "state": "Gujarat",
    "pincode": "",
    "latitude": 23.12596,
    "longitude": 73.60959
  },
  {
    "_id": {
      "$oid": "6539279ee0265e4af914b8a2"
    },
    "name": "Police Station Kacheri",
    "area": "Near Hospital Road",
    "district": "Bhuj",
    "state": "Gujarat",
    "pincode": "370020",
    "latitude": 23.24711,
    "longitude": 69.67411
  },
  {
    "_id": {
      "$oid": "6539279ee0265e4af914b8a3"
    },
    "name": "Kacheri Police Station",
    "area": "Kapadvanj Market",
    "district": "Road",
    "state": "Gujarat",
    "pincode": "",
    "latitude": 23.02687,
    "longitude": 73.0683
  },
  {
    "_id": {
      "$oid": "6539279ee0265e4af914b8a4"
    },
    "name": "Mamlatdar Kacheri & Police Station",
    "area": "Lilia Mahal",
    "district": "365535",
    "state": "Gujarat",
    "pincode": "",
    "latitude": 21.53799,
    "longitude": 71.36282
  },
  {
    "_id": {
      "$oid": "6539279ee0265e4af914b8a5"
    },
    "name": "Police Station, Old Sakkar Bag Area",
    "area": "Station Road",
    "district": "City",
    "state": "Gujarat",
    "pincode": "362001",
    "latitude": 21.5287,
    "longitude": 70.45879
  },
  {
    "_id": {
      "$oid": "6539279ee0265e4af914b8a6"
    },
    "name": "Rajula Police Station",
    "area": "SH-34",
    "district": "365560",
    "state": "Gujarat",
    "pincode": "",
    "latitude": 21.03425,
    "longitude": 71.4419
  },
  {
    "_id": {
      "$oid": "6539279ee0265e4af914b8a7"
    },
    "name": "Thaltej Police Station",
    "area": "Thaltej Shilaj Road",
    "district": "Ahmedabad",
    "state": "Gujarat",
    "pincode": "380059",
    "latitude": 23.05049,
    "longitude": 72.5093
  },
  {
    "_id": {
      "$oid": "6539279ee0265e4af914b8a8"
    },
    "name": "Thaltej Police Chowki",
    "area": "Drive In Road",
    "district": "Ahmedabad",
    "state": "Gujarat",
    "pincode": "380052",
    "latitude": 23.0477,
    "longitude": 72.52737
  },
  {
    "_id": {
      "$oid": "6539279ee0265e4af914b8a9"
    },
    "name": "Veraval Police Station",
    "area": "Veraval 362265",
    "district": "",
    "state": "Gujarat",
    "pincode": "",
    "latitude": 20.90581,
    "longitude": 70.37099
  },
  {
    "_id": {
      "$oid": "6539279ee0265e4af914b8aa"
    },
    "name": "Maninager Police Station,styel Check,rambag",
    "area": "Ahmedabad",
    "district": "",
    "state": "Gujarat",
    "pincode": "India",
    "latitude": 22.9976419189,
    "longitude": 72.602514495
  },
  {
    "_id": {
      "$oid": "6539279ee0265e4af914b8ab"
    },
    "name": "Nagnath Police Chowki",
    "area": "Natwar Road",
    "district": "360490",
    "state": "Gujarat",
    "pincode": "Upleta 360490",
    "latitude": 21.744224,
    "longitude": 70.288235
  },
  {
    "_id": {
      "$oid": "6539279ee0265e4af914b8ac"
    },
    "name": "Police Station-Balsinor",
    "area": "NH-59",
    "district": "388255",
    "state": "Gujarat",
    "pincode": "Balasinor 388255",
    "latitude": 22.9402577,
    "longitude": 73.3370485
  },
  {
    "_id": {
      "$oid": "6539279ee0265e4af914b8ad"
    },
    "name": "Meghani Nagar Police Station",
    "area": "Near Last Bus Stop",
    "district": "Meghani",
    "state": "Gujarat",
    "pincode": "380016",
    "latitude": 23.057915,
    "longitude": 72.617822
  },
  {
    "_id": {
      "$oid": "6539279ee0265e4af914b8ae"
    },
    "name": "SRPF Ground Naroda Patiya",
    "area": "Ahmedabad",
    "district": "",
    "state": "Gujarat",
    "pincode": "India",
    "latitude": 23.0565407501,
    "longitude": 72.6461490998
  },
  {
    "_id": {
      "$oid": "6539279ee0265e4af914b8af"
    },
    "name": "Police Station-Kaprada",
    "area": "Dharampur",
    "district": "",
    "state": "Gujarat",
    "pincode": "",
    "latitude": 20.34438,
    "longitude": 73.21393
  },
  {
    "_id": {
      "$oid": "6539279ee0265e4af914b8b0"
    },
    "name": "Kaprada Police Station",
    "area": "SH-67",
    "district": "Dharampur",
    "state": "Gujarat",
    "pincode": "396065",
    "latitude": 20.34346,
    "longitude": 73.219129
  },
  {
    "_id": {
      "$oid": "6539279ee0265e4af914b8b1"
    },
    "name": "Police Station-Kaprada",
    "area": "SH-183",
    "district": "Dharampur",
    "state": "Gujarat",
    "pincode": "396126",
    "latitude": 20.41394,
    "longitude": 73.12652
  },
  {
    "_id": {
      "$oid": "6539279ee0265e4af914b8b2"
    },
    "name": "Juhapura Police Station",
    "area": "Ahmedabad",
    "district": "380055",
    "state": "Gujarat",
    "pincode": "380055",
    "latitude": 22.99368,
    "longitude": 72.527183
  },
  {
    "_id": {
      "$oid": "6539279ee0265e4af914b8b3"
    },
    "name": "Amroli Police Station",
    "area": "Kosad Singh Road",
    "district": "Surat",
    "state": "Gujarat",
    "pincode": "395008",
    "latitude": 21.238056,
    "longitude": 72.848555
  },
  {
    "_id": {
      "$oid": "6539279ee0265e4af914b8b4"
    },
    "name": "Police Station-Khatodara",
    "area": "Udhana-Magdalla Road",
    "district": "Surat",
    "state": "Gujarat",
    "pincode": "395002",
    "latitude": 21.1759,
    "longitude": 72.83114
  },
  {
    "_id": {
      "$oid": "6539279ee0265e4af914b8b5"
    },
    "name": "Police Station-Valod",
    "area": "Valod",
    "district": "Gujarat",
    "state": "Gujarat",
    "pincode": "394640",
    "latitude": 21.0481422,
    "longitude": 73.2621571
  },
  {
    "_id": {
      "$oid": "6539279ee0265e4af914b8b6"
    },
    "name": "Adajan Police Station",
    "area": "Surat",
    "district": "",
    "state": "Gujarat",
    "pincode": "",
    "latitude": 21.19302725,
    "longitude": 72.79265815
  },
  {
    "_id": {
      "$oid": "6539279ee0265e4af914b8b7"
    },
    "name": "Police Station-Uun",
    "area": "SH-26",
    "district": "Un",
    "state": "Gujarat",
    "pincode": "451440",
    "latitude": 21.82118,
    "longitude": 75.45355
  },
  {
    "_id": {
      "$oid": "6539279ee0265e4af914b8b8"
    },
    "name": "Umara Police Station",
    "area": "Ghod Dod Road",
    "district": "Surat",
    "state": "Gujarat",
    "pincode": "395001",
    "latitude": 21.175741,
    "longitude": 72.809896
  },
  {
    "_id": {
      "$oid": "6539279ee0265e4af914b8b9"
    },
    "name": "Sanvali Police Station",
    "area": "Police Line",
    "district": "Savli",
    "state": "Gujarat",
    "pincode": "391770",
    "latitude": 22.55741,
    "longitude": 73.222295
  },
  {
    "_id": {
      "$oid": "6539279ee0265e4af914b8ba"
    },
    "name": "Gandhidham Police Station",
    "area": "Gandhidham",
    "district": "Gandhidham",
    "state": "Gujarat",
    "pincode": "Gandhidham",
    "latitude": 23.0708268576,
    "longitude": 70.1351218232
  },
  {
    "_id": {
      "$oid": "6539279ee0265e4af914b8bb"
    },
    "name": "Sayajigunj Police Station",
    "area": "Tilak Marg",
    "district": "Vadodara",
    "state": "Gujarat",
    "pincode": "390005",
    "latitude": 22.309768,
    "longitude": 73.18294
  },
  {
    "_id": {
      "$oid": "6539279ee0265e4af914b8bc"
    },
    "name": "Bedi Marine Police Station",
    "area": "SH-26",
    "district": "361002",
    "state": "Gujarat",
    "pincode": "Jamnagar 361002",
    "latitude": 22.49395,
    "longitude": 70.04611
  },
  {
    "_id": {
      "$oid": "6539279ee0265e4af914b8bd"
    },
    "name": "Police Station-Marin",
    "area": "Surat",
    "district": "394270",
    "state": "Gujarat",
    "pincode": "394270",
    "latitude": 21.09644,
    "longitude": 72.65033
  },
  {
    "_id": {
      "$oid": "6539279ee0265e4af914b8be"
    },
    "name": "Mundra Marine Police Station",
    "area": "Mundra 370421",
    "district": "Mundra 370421",
    "state": "Gujarat",
    "pincode": "Mundra 370421",
    "latitude": 22.821219,
    "longitude": 69.723628
  },
  {
    "_id": {
      "$oid": "6539279ee0265e4af914b8bf"
    },
    "name": "Police Pared Ground , Anand",
    "area": "Anand",
    "district": "388001",
    "state": "Gujarat",
    "pincode": "388001",
    "latitude": 22.5433484585,
    "longitude": 72.9614944284
  },
  {
    "_id": {
      "$oid": "6539279ee0265e4af914b8c0"
    },
    "name": "Sayaji Ganj Police Station",
    "area": "Aurobindo Ghosh Road",
    "district": "Railway",
    "state": "Gujarat",
    "pincode": "390005",
    "latitude": 22.309759,
    "longitude": 73.182928
  },
  {
    "_id": {
      "$oid": "6539279ee0265e4af914b8c1"
    },
    "name": "Police Station-Suigam",
    "area": "Vav",
    "district": "Gujarat",
    "state": "Gujarat",
    "pincode": "India",
    "latitude": 24.15842,
    "longitude": 71.35847
  },
  {
    "_id": {
      "$oid": "6539279ee0265e4af914b8c2"
    },
    "name": "Police Station Suigam",
    "area": "Vav",
    "district": "Gujarat",
    "state": "Gujarat",
    "pincode": "385570",
    "latitude": 24.15859,
    "longitude": 71.35865
  },
  {
    "_id": {
      "$oid": "6539279ee0265e4af914b8c3"
    },
    "name": "Chuda Police Station",
    "area": "Chuda",
    "district": "Gujarat",
    "state": "Gujarat",
    "pincode": "363410",
    "latitude": 22.484624,
    "longitude": 71.69678
  },
  {
    "_id": {
      "$oid": "6539279ee0265e4af914b8c4"
    },
    "name": "Rural Police Line,nadiad",
    "area": "Rural Police Line",
    "district": "Road",
    "state": "Gujarat",
    "pincode": "Nadiad 387001",
    "latitude": 22.690879,
    "longitude": 72.8609725
  },
  {
    "_id": {
      "$oid": "6539279ee0265e4af914b8c5"
    },
    "name": "Khokhar Police Chowki",
    "area": "Ahmedabad",
    "district": "380008",
    "state": "Gujarat",
    "pincode": "380008",
    "latitude": 23.001525,
    "longitude": 72.620004
  },
  {
    "_id": {
      "$oid": "6539279ee0265e4af914b8c6"
    },
    "name": "D C B Police Station-Pratap Nagar",
    "area": "Yashin Khan Pathan Road",
    "district": "Vadodara",
    "state": "Gujarat",
    "pincode": "390017",
    "latitude": 22.29668,
    "longitude": 73.21527
  },
  {
    "_id": {
      "$oid": "6539279ee0265e4af914b8c7"
    },
    "name": "Police Station Kalupur Outer",
    "area": "Ahmedabad",
    "district": "380002",
    "state": "Gujarat",
    "pincode": "380002",
    "latitude": 23.030798,
    "longitude": 72.59881
  },
  {
    "_id": {
      "$oid": "6539279ee0265e4af914b8c8"
    },
    "name": "Lakkad Khod Police Station",
    "area": "Lakkad Road",
    "district": "Khod",
    "state": "Gujarat",
    "pincode": "395003",
    "latitude": 21.200902,
    "longitude": 72.836364
  },
  {
    "_id": {
      "$oid": "6539279ee0265e4af914b8c9"
    },
    "name": "Police Station-Songadh",
    "area": "Songadh",
    "district": "Songadh",
    "state": "Gujarat",
    "pincode": "Songadh",
    "latitude": 21.1676,
    "longitude": 73.56134
  },
  {
    "_id": {
      "$oid": "6539279ee0265e4af914b8ca"
    },
    "name": "Kalu Pur Police Chowki",
    "area": "Kalupur",
    "district": "Ahmedabad",
    "state": "Gujarat",
    "pincode": "380001",
    "latitude": 23.030813,
    "longitude": 72.59784
  },
  {
    "_id": {
      "$oid": "6539279ee0265e4af914b8cb"
    },
    "name": "Khambha Police Compound",
    "area": "Khambha",
    "district": "Gujarat",
    "state": "Gujarat",
    "pincode": "365650",
    "latitude": 21.141154,
    "longitude": 71.253473
  },
  {
    "_id": {
      "$oid": "6539279ee0265e4af914b8cc"
    },
    "name": "Tambu Chowki",
    "area": "Dariapur",
    "district": "Ahmedabad",
    "state": "Gujarat",
    "pincode": "380001",
    "latitude": 23.035585,
    "longitude": 72.593005
  },
  {
    "_id": {
      "$oid": "6539279ee0265e4af914b8cd"
    },
    "name": "Kalidindi Police Station",
    "area": "SH-63",
    "district": "Kalidindi",
    "state": "Gujarat",
    "pincode": "521344",
    "latitude": 16.5085,
    "longitude": 81.29688
  },
  {
    "_id": {
      "$oid": "6539279ee0265e4af914b8ce"
    },
    "name": "Radhanpur Circle Police Station",
    "area": "Mehsana 384002",
    "district": "Mehsana 384002",
    "state": "Gujarat",
    "pincode": "Mehsana 384002",
    "latitude": 23.605648,
    "longitude": 72.381653
  },
  {
    "_id": {
      "$oid": "6539279ee0265e4af914b8cf"
    },
    "name": "Police Station-Neradigonda",
    "area": "Boath",
    "district": "Boath",
    "state": "Gujarat",
    "pincode": "Boath",
    "latitude": 19.30357,
    "longitude": 78.40682
  },
  {
    "_id": {
      "$oid": "6539279ee0265e4af914b8d0"
    },
    "name": "Champaner-Police Station",
    "area": "Halol",
    "district": "Halol",
    "state": "Gujarat",
    "pincode": "Halol",
    "latitude": 22.46863,
    "longitude": 73.52319
  },
  {
    "_id": {
      "$oid": "6539279ee0265e4af914b8d1"
    },
    "name": "Ahwa Police Station",
    "area": "Main Road Ahwa",
    "district": "394710",
    "state": "Gujarat",
    "pincode": "Ahwa 394710",
    "latitude": 20.7569446564,
    "longitude": 73.6875
  },
  {
    "_id": {
      "$oid": "6539279ee0265e4af914b8d2"
    },
    "name": "Police Chowki Punagam",
    "area": "Surat",
    "district": "395010",
    "state": "Gujarat",
    "pincode": "395010",
    "latitude": 21.20263,
    "longitude": 72.87261
  },
  {
    "_id": {
      "$oid": "6539279ee0265e4af914b8d3"
    },
    "name": "Police station-gotri",
    "area": "Vadodara",
    "district": "Gujarat",
    "state": "Gujarat",
    "pincode": "India",
    "latitude": 22.31217,
    "longitude": 73.13322
  },
  {
    "_id": {
      "$oid": "6539279ee0265e4af914b8d4"
    },
    "name": "Begampura Police Station",
    "area": "Nawabwadi Road",
    "district": "Begampura",
    "state": "Gujarat",
    "pincode": "395003",
    "latitude": 21.196303,
    "longitude": 72.83721
  },
  {
    "_id": {
      "$oid": "6539279ee0265e4af914b8d5"
    },
    "name": "B Division Police Station Mehsana City",
    "area": "Sagar Society",
    "district": "Mehsana",
    "state": "Gujarat",
    "pincode": "Mehsana 384002",
    "latitude": 23.598815,
    "longitude": 72.378828
  },
  {
    "_id": {
      "$oid": "6539279ee0265e4af914b8d6"
    },
    "name": "Sami Police Station",
    "area": "Shankheswar To Radhanpur Road Sami",
    "district": "Sami",
    "state": "Gujarat",
    "pincode": "384245",
    "latitude": 23.6872,
    "longitude": 71.77912
  },
  {
    "_id": {
      "$oid": "6539279ee0265e4af914b8d7"
    },
    "name": "Satellite Police Station-Ramdev Nagar",
    "area": "Satellite Road",
    "district": "Ahmedabad",
    "state": "Gujarat",
    "pincode": "380015",
    "latitude": 23.02746,
    "longitude": 72.51091
  },
  {
    "_id": {
      "$oid": "6539279ee0265e4af914b8d8"
    },
    "name": "Tankara",
    "area": "Tankara",
    "district": "Gujarat",
    "state": "Gujarat",
    "pincode": "India",
    "latitude": 22.72076,
    "longitude": 70.78475
  },
  {
    "_id": {
      "$oid": "6539279ee0265e4af914b8d9"
    },
    "name": "Adishwarnagar Bit Chowki",
    "area": "Nava Naroda Road",
    "district": "Ahmedabad",
    "state": "Gujarat",
    "pincode": "382330",
    "latitude": 23.068425,
    "longitude": 72.660933
  },
  {
    "_id": {
      "$oid": "6539279ee0265e4af914b8da"
    },
    "name": "નાયબ પોલીસ અધિક્ષક શ્રી ની કચેરી, વાપી",
    "area": "વાપી જી.આઇ.ડી.સી પોલીસ સ્ટેશન ની સામે",
    "district": "બ્રિગેડ",
    "state": "Gujarat",
    "pincode": "Valsad 396195",
    "latitude": 20.37133,
    "longitude": 72.90903
  },
  {
    "_id": {
      "$oid": "6539279ee0265e4af914b8db"
    },
    "name": "Police Station-Palanpur",
    "area": "Palanpur 385001",
    "district": "Palanpur 385001",
    "state": "Gujarat",
    "pincode": "Palanpur 385001",
    "latitude": 24.19378,
    "longitude": 72.437
  },
  {
    "_id": {
      "$oid": "6539279ee0265e4af914b8dc"
    },
    "name": "Town Police Station-Tadpatri",
    "area": "Putlur Road",
    "district": "515411",
    "state": "Gujarat",
    "pincode": "Tadipatri 515411",
    "latitude": 14.9094538,
    "longitude": 78.0092951
  },
  {
    "_id": {
      "$oid": "6539279ee0265e4af914b8dd"
    },
    "name": "Vatva New Police Station",
    "area": "Vatva Road",
    "district": "Ahmedabad",
    "state": "Gujarat",
    "pincode": "382440",
    "latitude": 22.9609532205,
    "longitude": 72.6125482677
  },
  {
    "_id": {
      "$oid": "6539279ee0265e4af914b8de"
    },
    "name": "Vatva Police Chowki",
    "area": "Ahmedabad",
    "district": "382445",
    "state": "Gujarat",
    "pincode": "382445",
    "latitude": 22.971415,
    "longitude": 72.62839
  },
  {
    "_id": {
      "$oid": "6539279ee0265e4af914b8df"
    },
    "name": "Rokadnath Police Station",
    "area": "Navabazar",
    "district": "Vadodara",
    "state": "Gujarat",
    "pincode": "390001",
    "latitude": 22.303333,
    "longitude": 73.206389
  },
  {
    "_id": {
      "$oid": "6539279ee0265e4af914b8e0"
    },
    "name": "Police Station-Sankheda",
    "area": "Sankheda",
    "district": "Gujarat",
    "state": "Gujarat",
    "pincode": "391125",
    "latitude": 22.1947,
    "longitude": 73.54139
  },
  {
    "_id": {
      "$oid": "6539279ee0265e4af914b8e1"
    },
    "name": "Umbergaon Police Chowki",
    "area": "Umargam",
    "district": "Gujarat",
    "state": "Gujarat",
    "pincode": "396170",
    "latitude": 20.19917,
    "longitude": 72.7503
  },
  {
    "_id": {
      "$oid": "6539279ee0265e4af914b8e2"
    },
    "name": "Harni Police Station",
    "area": "Harni",
    "district": "Vadodara",
    "state": "Gujarat",
    "pincode": "390022",
    "latitude": 22.35026,
    "longitude": 73.229223
  },
  {
    "_id": {
      "$oid": "6539279ee0265e4af914b8e3"
    },
    "name": "Police Station-Ramol Chokdi",
    "area": "Vatva Gidc Road",
    "district": "Ahmedabad",
    "state": "Gujarat",
    "pincode": "382445",
    "latitude": 22.96713,
    "longitude": 72.64669
  },
  {
    "_id": {
      "$oid": "6539279ee0265e4af914b8e4"
    },
    "name": "Subhash Bridge Police Station",
    "area": "Ashram Road",
    "district": "Ahmedabad",
    "state": "Gujarat",
    "pincode": "380027",
    "latitude": 23.066363,
    "longitude": 72.582604
  },
  {
    "_id": {
      "$oid": "6539279ee0265e4af914b8e5"
    },
    "name": "Police Station-City Wadhwan",
    "area": "Dudhrej Road",
    "district": "363001",
    "state": "Gujarat",
    "pincode": "Dudhrej 363001",
    "latitude": 22.72507,
    "longitude": 71.62842
  },
  {
    "_id": {
      "$oid": "6539279ee0265e4af914b8e6"
    },
    "name": "Vastral Ring Road Police Chowki",
    "area": "Ahmedabad",
    "district": "382418",
    "state": "Gujarat",
    "pincode": "382418",
    "latitude": 22.999633,
    "longitude": 72.666705
  },
  {
    "_id": {
      "$oid": "6539279ee0265e4af914b8e7"
    },
    "name": "Vastral Police Chowki",
    "area": "Ahmedabad",
    "district": "382418",
    "state": "Gujarat",
    "pincode": "382418",
    "latitude": 23.002493,
    "longitude": 72.649253
  },
  {
    "_id": {
      "$oid": "6539279ee0265e4af914b8e8"
    },
    "name": "Police Station-Mehsana",
    "area": "Mehsana 384002",
    "district": "Mehsana 384002",
    "state": "Gujarat",
    "pincode": "Mehsana 384002",
    "latitude": 23.60787,
    "longitude": 72.38215
  },
  {
    "_id": {
      "$oid": "6539279ee0265e4af914b8e9"
    },
    "name": "Vadtal Police Station",
    "area": "Nadiad 387375",
    "district": "Nadiad 387375",
    "state": "Gujarat",
    "pincode": "Nadiad 387375",
    "latitude": 22.5945432,
    "longitude": 72.87367
  },
  {
    "_id": {
      "$oid": "6539279ee0265e4af914b8ea"
    },
    "name": "Rural Police Station-Tadipatri",
    "area": "SH-31",
    "district": "515411",
    "state": "Gujarat",
    "pincode": "Tadipatri 515411",
    "latitude": 14.9044712,
    "longitude": 78.0199311
  },
  {
    "_id": {
      "$oid": "6539279ee0265e4af914b8eb"
    },
    "name": "Halvad police station",
    "area": "Halvad",
    "district": "Halvad",
    "state": "Gujarat",
    "pincode": "Halvad",
    "latitude": 23.0133320241,
    "longitude": 71.1759287854
  },
  {
    "_id": {
      "$oid": "6539279ee0265e4af914b8ec"
    },
    "name": "Police Station Madhapar",
    "area": "Bhuj 370020",
    "district": "Bhuj 370020",
    "state": "Gujarat",
    "pincode": "Bhuj 370020",
    "latitude": 23.24076,
    "longitude": 69.71083
  },
  {
    "_id": {
      "$oid": "6539279ee0265e4af914b8ed"
    },
    "name": "Police Station-Chhani",
    "area": "Rama Kaka Road",
    "district": "Vadodara",
    "state": "Gujarat",
    "pincode": "391740",
    "latitude": 22.36489,
    "longitude": 73.16756
  },
  {
    "_id": {
      "$oid": "6539279ee0265e4af914b8ee"
    },
    "name": "Chhani Jagat Naka Police Station",
    "area": "Vadodara",
    "district": "Gujarat",
    "state": "Gujarat",
    "pincode": "390024",
    "latitude": 22.343076,
    "longitude": 73.177316
  },
  {
    "_id": {
      "$oid": "6539279ee0265e4af914b8ef"
    },
    "name": "Tarsali Police Chowki",
    "area": "Maharshi Dayanand Marg",
    "district": "Vadodara",
    "state": "Gujarat",
    "pincode": "390009",
    "latitude": 22.257375,
    "longitude": 73.212343
  },
  {
    "_id": {
      "$oid": "6539279ee0265e4af914b8f0"
    },
    "name": "Superintendent of Police",
    "area": "DC 5",
    "district": "Adipur",
    "state": "Gujarat",
    "pincode": "Gandhidham 370205",
    "latitude": 23.068416,
    "longitude": 70.103438
  },
  {
    "_id": {
      "$oid": "6539279ee0265e4af914b8f1"
    },
    "name": "Office of the Superintendent of Police",
    "area": "Dudhrej 363001",
    "district": "Dudhrej 363001",
    "state": "Gujarat",
    "pincode": "Dudhrej 363001",
    "latitude": 22.72766,
    "longitude": 71.62114
  },
  {
    "_id": {
      "$oid": "6539279ee0265e4af914b8f2"
    },
    "name": "Madhapur Police Stations",
    "area": "Madhavpura",
    "district": "Ahmedabad",
    "state": "Gujarat",
    "pincode": "380004",
    "latitude": 23.01632,
    "longitude": 72.61359
  },
  {
    "_id": {
      "$oid": "6539279ee0265e4af914b8f3"
    },
    "name": "Piplod Police Chowki",
    "area": "Surat Dumas Road",
    "district": "Lake",
    "state": "Gujarat",
    "pincode": "395007",
    "latitude": 21.1683205,
    "longitude": 72.7785810667
  },
  {
    "_id": {
      "$oid": "6539279ee0265e4af914b8f4"
    },
    "name": "Police Station-Kuvadva Road",
    "area": "Kuvadva Road",
    "district": "Rajkot",
    "state": "Gujarat",
    "pincode": "",
    "latitude": 22.32259,
    "longitude": 70.84674
  },
  {
    "_id": {
      "$oid": "6539279ee0265e4af914b8f5"
    },
    "name": "Police Station-Bhelupur",
    "area": "SH-6",
    "district": "388530",
    "state": "Gujarat",
    "pincode": "Borsad 388530",
    "latitude": 22.36355,
    "longitude": 72.90429
  },
  {
    "_id": {
      "$oid": "6539279ee0265e4af914b8f6"
    },
    "name": "Dakor Police Station",
    "area": "SH-60",
    "district": "388225",
    "state": "Gujarat",
    "pincode": "Dakor 388225",
    "latitude": 22.7517454703,
    "longitude": 73.1519401073
  },
  {
    "_id": {
      "$oid": "6539279ee0265e4af914b8f7"
    },
    "name": "Thorala Police Station",
    "area": "Bhavnagar Road",
    "district": "",
    "state": "Gujarat",
    "pincode": "360003",
    "latitude": 22.29191,
    "longitude": 70.8220933
  },
  {
    "_id": {
      "$oid": "6539279ee0265e4af914b8f8"
    },
    "name": "Police Station",
    "area": "Khed Brahma",
    "district": "Gujarat",
    "state": "Gujarat",
    "pincode": "383255",
    "latitude": 24.037439,
    "longitude": 73.049036
  },
  {
    "_id": {
      "$oid": "6539279ee0265e4af914b8f9"
    },
    "name": "Anandnagar Police Station",
    "area": "Satellite Service Road",
    "district": "Ahmedabad",
    "state": "Gujarat",
    "pincode": "380015",
    "latitude": 23.0237385333,
    "longitude": 72.5331023333
  },
  {
    "_id": {
      "$oid": "6539279ee0265e4af914b8fa"
    },
    "name": "Jambusar Bypass Police Chowki",
    "area": "Dahej Road",
    "district": "Bypass",
    "state": "Gujarat",
    "pincode": "Bharuch 392001",
    "latitude": 21.705438,
    "longitude": 72.966119
  },
  {
    "_id": {
      "$oid": "6539279ee0265e4af914b8fb"
    },
    "name": "Jambusar Police Station",
    "area": "Near Juma Masjid Road",
    "district": "392001",
    "state": "Gujarat",
    "pincode": "Bharuch 392001",
    "latitude": 21.69288,
    "longitude": 72.983366
  },
  {
    "_id": {
      "$oid": "6539279ee0265e4af914b8fc"
    },
    "name": "Police Station-Rajkot Sub-District",
    "area": "Rajkot",
    "district": "360025",
    "state": "Gujarat",
    "pincode": "360025",
    "latitude": 22.13843,
    "longitude": 70.98323
  },
  {
    "_id": {
      "$oid": "6539279ee0265e4af914b8fd"
    },
    "name": "Pandesara Police Station",
    "area": "Pani Ki Tanki Road",
    "district": "Surat",
    "state": "Gujarat",
    "pincode": "394220",
    "latitude": 21.1485068007,
    "longitude": 72.8328092502
  },
  {
    "_id": {
      "$oid": "6539279ee0265e4af914b8fe"
    },
    "name": "Nagnath Gate Police Chowki",
    "area": "I. G. Road",
    "district": "361001",
    "state": "Gujarat",
    "pincode": "Jamnagar 361001",
    "latitude": 22.47259,
    "longitude": 70.07884
  },
  {
    "_id": {
      "$oid": "6539279ee0265e4af914b8ff"
    },
    "name": "Police Chowki Idgah",
    "area": "Idgah Circle",
    "district": "Ahmedabad",
    "state": "Gujarat",
    "pincode": "380004",
    "latitude": 23.040464,
    "longitude": 72.596364
  },
  {
    "_id": {
      "$oid": "6539279ee0265e4af914b900"
    },
    "name": "Khadia Police Station",
    "area": "Ahmedabad",
    "district": "380001",
    "state": "Gujarat",
    "pincode": "380001",
    "latitude": 23.0173465284,
    "longitude": 72.5946138707
  },
  {
    "_id": {
      "$oid": "6539279ee0265e4af914b901"
    },
    "name": "Ambavadi Police Line",
    "area": "Himatnagar 383001",
    "district": "Himatnagar 383001",
    "state": "Gujarat",
    "pincode": "Himatnagar 383001",
    "latitude": 23.596269,
    "longitude": 72.967718
  },
  {
    "_id": {
      "$oid": "6539279ee0265e4af914b902"
    },
    "name": "Police Station Lal Bazar",
    "area": "Bharuch 392001",
    "district": "Bharuch 392001",
    "state": "Gujarat",
    "pincode": "Bharuch 392001",
    "latitude": 21.693798,
    "longitude": 72.980688
  },
  {
    "_id": {
      "$oid": "6539279ee0265e4af914b903"
    },
    "name": "Police Station-Khanpur",
    "area": "Khanpur Road",
    "district": "Ahmedabad",
    "state": "Gujarat",
    "pincode": "380001",
    "latitude": 23.0304,
    "longitude": 72.57702
  },
  {
    "_id": {
      "$oid": "6539279ee0265e4af914b904"
    },
    "name": "Kamal Bagh Police Station",
    "area": "MG Road Opposite - Kamla Nehru Park",
    "district": "360575",
    "state": "Gujarat",
    "pincode": "Porbandar 360575",
    "latitude": 21.63918,
    "longitude": 69.623174
  },
  {
    "_id": {
      "$oid": "6539279ee0265e4af914b905"
    },
    "name": "Kamlabaug Police Station",
    "area": "Porbandar",
    "district": "Porbandar",
    "state": "Gujarat",
    "pincode": "Porbandar",
    "latitude": 21.63791716,
    "longitude": 69.6262091308
  },
  {
    "_id": {
      "$oid": "6539279ee0265e4af914b906"
    },
    "name": "Kirti Mandir Police Station",
    "area": "Kirti Mandir Road",
    "district": "360575",
    "state": "Gujarat",
    "pincode": "Porbandar 360575",
    "latitude": 21.642323,
    "longitude": 69.600742
  },
  {
    "_id": {
      "$oid": "6539279ee0265e4af914b907"
    },
    "name": "Juni Fuvara Police Lines",
    "area": "Porbandar 360575",
    "district": "Porbandar 360575",
    "state": "Gujarat",
    "pincode": "Porbandar 360575",
    "latitude": 21.639335,
    "longitude": 69.610527
  },
  {
    "_id": {
      "$oid": "6539279ee0265e4af914b908"
    },
    "name": "Police Station-Datha",
    "area": "Talaja 364130",
    "district": "Talaja 364130",
    "state": "Gujarat",
    "pincode": "Talaja 364130",
    "latitude": 21.20257,
    "longitude": 71.96023
  },
  {
    "_id": {
      "$oid": "6539279ee0265e4af914b909"
    },
    "name": "Bhuj Central Jail",
    "area": "Bhuj 370002",
    "district": "Bhuj 370002",
    "state": "Gujarat",
    "pincode": "Bhuj 370002",
    "latitude": 23.2416,
    "longitude": 69.71129
  },
  {
    "_id": {
      "$oid": "6539279ee0265e4af914b90a"
    },
    "name": "Police Station Chowk Bazar",
    "area": "Surat",
    "district": "395003",
    "state": "Gujarat",
    "pincode": "395003",
    "latitude": 21.218458,
    "longitude": 72.822073
  },
  {
    "_id": {
      "$oid": "6539279ee0265e4af914b90b"
    },
    "name": "Bhadran Police Station",
    "area": "Borsad 388530",
    "district": "Borsad 388530",
    "state": "Gujarat",
    "pincode": "Borsad 388530",
    "latitude": 22.3598861953,
    "longitude": 72.9032490368
  },
  {
    "_id": {
      "$oid": "6539279ee0265e4af914b90c"
    },
    "name": "Police Station-Tadepalligudem",
    "area": "Tadepalligudem 534101",
    "district": "Tadepalligudem 534101",
    "state": "Gujarat",
    "pincode": "Tadepalligudem 534101",
    "latitude": 16.81424,
    "longitude": 81.5272
  },
  {
    "_id": {
      "$oid": "6539279ee0265e4af914b90d"
    },
    "name": "Mendarda Police Line",
    "area": "SH-26",
    "district": "Mendarda",
    "state": "Gujarat",
    "pincode": "362260",
    "latitude": 21.321977,
    "longitude": 70.444416
  },
  {
    "_id": {
      "$oid": "6539279ee0265e4af914b90e"
    },
    "name": "Heerapur Police Chowki",
    "area": "Mahemdabad Road",
    "district": "Badodara",
    "state": "Gujarat",
    "pincode": "",
    "latitude": 22.91582,
    "longitude": 72.70014
  },
  {
    "_id": {
      "$oid": "6539279ee0265e4af914b90f"
    },
    "name": "Sachin Police Station",
    "area": "Old Surat Mumbai Highway",
    "district": "Kanade",
    "state": "Gujarat",
    "pincode": "",
    "latitude": 21.08736,
    "longitude": 72.8816
  },
  {
    "_id": {
      "$oid": "6539279ee0265e4af914b910"
    },
    "name": "Manmohan Police Station",
    "area": "Nikhol Odhav Road",
    "district": "Nicol",
    "state": "Gujarat",
    "pincode": "",
    "latitude": 23.03709,
    "longitude": 72.66203
  },
  {
    "_id": {
      "$oid": "6539279ee0265e4af914b911"
    },
    "name": "Police Station-Madhavpur",
    "area": "NH-51",
    "district": "362225",
    "state": "Gujarat",
    "pincode": "",
    "latitude": 21.15947,
    "longitude": 70.07258
  },
  {
    "_id": {
      "$oid": "6539279ee0265e4af914b912"
    },
    "name": "Police Station, Madhavpur",
    "area": "Nh51",
    "district": "Bus-Station",
    "state": "Gujarat",
    "pincode": "",
    "latitude": 21.2574,
    "longitude": 69.96388
  },
  {
    "_id": {
      "$oid": "6539279ee0265e4af914b913"
    },
    "name": "Ranavav Police Station",
    "area": "SH-95",
    "district": "Ranavav",
    "state": "Gujarat",
    "pincode": "360550",
    "latitude": 21.68254,
    "longitude": 69.74358
  },
  {
    "_id": {
      "$oid": "6539279ee0265e4af914b914"
    },
    "name": "Police Station Sikka",
    "area": "Nagani Road",
    "district": "Gram",
    "state": "Gujarat",
    "pincode": "",
    "latitude": 22.43335,
    "longitude": 69.83799
  },
  {
    "_id": {
      "$oid": "6539279ee0265e4af914b915"
    },
    "name": "Gondal Police Station",
    "area": "SH-31",
    "district": "Vavdi",
    "state": "Gujarat",
    "pincode": "",
    "latitude": 21.77577,
    "longitude": 70.81114
  },
  {
    "_id": {
      "$oid": "6539279ee0265e4af914b916"
    },
    "name": "Gondal Taluka Police Station",
    "area": "SH-320",
    "district": "Madhda",
    "state": "Gujarat",
    "pincode": "",
    "latitude": 21.85186,
    "longitude": 71.02578
  },
  {
    "_id": {
      "$oid": "6539279ee0265e4af914b917"
    },
    "name": "Gondal City Police Station",
    "area": "Gj Sh122",
    "district": "Bhagavatpara",
    "state": "Gujarat",
    "pincode": "",
    "latitude": 21.96799,
    "longitude": 70.80772
  },
  {
    "_id": {
      "$oid": "6539279ee0265e4af914b918"
    },
    "name": "Gondal Road Cheak Post",
    "area": "Ring Road",
    "district": "Vavdi",
    "state": "Gujarat",
    "pincode": "",
    "latitude": 22.24277,
    "longitude": 70.7997
  },
  {
    "_id": {
      "$oid": "6539279ee0265e4af914b919"
    },
    "name": "Gondal Police Head Quarter",
    "area": "Sukhnath Nagar",
    "district": "Phase",
    "state": "Gujarat",
    "pincode": "",
    "latitude": 21.96731,
    "longitude": 70.80804
  },
  {
    "_id": {
      "$oid": "6539279ee0265e4af914b91a"
    },
    "name": "Police Station-Kothara",
    "area": "Near Sh91",
    "district": "Rural",
    "state": "Gujarat",
    "pincode": "",
    "latitude": 23.1317,
    "longitude": 68.9376
  },
  {
    "_id": {
      "$oid": "6539279ee0265e4af914b91b"
    },
    "name": "Kothara Police Station",
    "area": "SH-91",
    "district": "Kothara",
    "state": "Gujarat",
    "pincode": "",
    "latitude": 23.13095,
    "longitude": 68.94093
  },
  {
    "_id": {
      "$oid": "6539279ee0265e4af914b91c"
    },
    "name": "Kesar Police Station",
    "area": "Main Road",
    "district": "Grampanchayat",
    "state": "Gujarat",
    "pincode": "",
    "latitude": 22.73598,
    "longitude": 73.31589
  },
  {
    "_id": {
      "$oid": "6539279ee0265e4af914b91d"
    },
    "name": "B Div Police Station",
    "area": "Bambakama Road",
    "district": "Panchabatti",
    "state": "Gujarat",
    "pincode": "",
    "latitude": 21.69181,
    "longitude": 72.97457
  },
  {
    "_id": {
      "$oid": "6539279ee0265e4af914b91e"
    },
    "name": "Jarod Outpost Police Station",
    "area": "Jarod Baypass",
    "district": "Of",
    "state": "Gujarat",
    "pincode": "",
    "latitude": 22.44038,
    "longitude": 73.3367
  },
  {
    "_id": {
      "$oid": "6539279ee0265e4af914b91f"
    },
    "name": "Police Chowki Jarod",
    "area": "SH-63",
    "district": "391510",
    "state": "Gujarat",
    "pincode": "",
    "latitude": 22.4821,
    "longitude": 73.30053
  },
  {
    "_id": {
      "$oid": "6539279ee0265e4af914b920"
    },
    "name": "Police Chawki",
    "area": "Indira Gandhi Road",
    "district": "Chhaya",
    "state": "Gujarat",
    "pincode": "",
    "latitude": 21.62804,
    "longitude": 69.63484
  },
  {
    "_id": {
      "$oid": "6539279ee0265e4af914b921"
    },
    "name": "Chhiri Police Chawki",
    "area": "Koparli Road",
    "district": "(Pardi)",
    "state": "Gujarat",
    "pincode": "",
    "latitude": 20.37852,
    "longitude": 72.93916
  },
  {
    "_id": {
      "$oid": "6539279ee0265e4af914b922"
    },
    "name": "Rentlav Police Chawki",
    "area": "Nh8",
    "district": "Rentlav",
    "state": "Gujarat",
    "pincode": "",
    "latitude": 20.46145,
    "longitude": 72.91986
  },
  {
    "_id": {
      "$oid": "6539279ee0265e4af914b923"
    },
    "name": "Saraspur Police Chowki",
    "area": "Shri Vasudevdasji Maharaj Marg",
    "district": "Kadiawad",
    "state": "Gujarat",
    "pincode": "",
    "latitude": 23.03118,
    "longitude": 72.61079
  },
  {
    "_id": {
      "$oid": "6539279ee0265e4af914b924"
    },
    "name": "Bombay Housing Police Chowki Saraspur",
    "area": "Rakhial Road",
    "district": "Saraspura",
    "state": "Gujarat",
    "pincode": "",
    "latitude": 23.02158,
    "longitude": 72.60951
  },
  {
    "_id": {
      "$oid": "6539279ee0265e4af914b925"
    },
    "name": "Saiyad Pura Police Station",
    "area": "Raghunathpura Station Road",
    "district": "Hospital",
    "state": "Gujarat",
    "pincode": "",
    "latitude": 21.20682,
    "longitude": 72.82586
  },
  {
    "_id": {
      "$oid": "6539279ee0265e4af914b926"
    },
    "name": "Chandod Police Chowki",
    "area": "Chandod Village Road",
    "district": "Chandod",
    "state": "Gujarat",
    "pincode": "391105",
    "latitude": 21.99061,
    "longitude": 73.45238
  },
  {
    "_id": {
      "$oid": "6539279ee0265e4af914b927"
    },
    "name": "Aproch Police Chowki Thakkarbapa Nagar",
    "area": "India Colony Road",
    "district": "Ahmedabad",
    "state": "Gujarat",
    "pincode": "382350",
    "latitude": 23.03912,
    "longitude": 72.63936
  },
  {
    "_id": {
      "$oid": "6539279ee0265e4af914b928"
    },
    "name": "Police Stations Parda",
    "area": "Near Bus Stand Road",
    "district": "Pur",
    "state": "Gujarat",
    "pincode": "391440",
    "latitude": 22.2418,
    "longitude": 73.0839
  },
  {
    "_id": {
      "$oid": "6539279ee0265e4af914b929"
    },
    "name": "Dhoraji City Police Station",
    "area": "Blue Star Cinema",
    "district": "New",
    "state": "Gujarat",
    "pincode": "",
    "latitude": 21.73009,
    "longitude": 70.45088
  },
  {
    "_id": {
      "$oid": "6539279ee0265e4af914b92a"
    },
    "name": "Naroda Police Station",
    "area": "Sutarna Karkhana Road",
    "district": "Makarpura",
    "state": "Gujarat",
    "pincode": "",
    "latitude": 23.07834,
    "longitude": 72.65644
  },
  {
    "_id": {
      "$oid": "6539279ee0265e4af914b92b"
    },
    "name": "Sri Siddhi Vinayaka Police Chowk Memar",
    "area": "SH-3",
    "district": "387130",
    "state": "Gujarat",
    "pincode": "",
    "latitude": 22.8326,
    "longitude": 72.76359
  },
  {
    "_id": {
      "$oid": "6539279ee0265e4af914b92c"
    },
    "name": "Vapi GIDC Police Station",
    "area": "Koprali Road",
    "district": "Balitha",
    "state": "Gujarat",
    "pincode": "",
    "latitude": 20.37536,
    "longitude": 72.9205
  },
  {
    "_id": {
      "$oid": "6539279ee0265e4af914b92d"
    },
    "name": "GIDC Police Station",
    "area": "Gidc Road",
    "district": "Pulp",
    "state": "Gujarat",
    "pincode": "396191",
    "latitude": 20.36099,
    "longitude": 72.92202
  },
  {
    "_id": {
      "$oid": "6539279ee0265e4af914b92e"
    },
    "name": "Gidc Police Chowki",
    "area": "Savli Halol Road",
    "district": "Industrial",
    "state": "Gujarat",
    "pincode": "389350",
    "latitude": 22.53046,
    "longitude": 73.4649
  },
  {
    "_id": {
      "$oid": "6539279ee0265e4af914b92f"
    },
    "name": "GIDC Police Station",
    "area": "Gidc",
    "district": "GIDC",
    "state": "Gujarat",
    "pincode": "",
    "latitude": 23.17001,
    "longitude": 72.81663
  },
  {
    "_id": {
      "$oid": "6539279ee0265e4af914b930"
    },
    "name": "GIDC Police Station",
    "area": "Gidc",
    "district": "Dehgam",
    "state": "Gujarat",
    "pincode": "382305",
    "latitude": 23.17066,
    "longitude": 72.8205
  },
  {
    "_id": {
      "$oid": "6539279ee0265e4af914b931"
    },
    "name": "Gidc Police Chowki",
    "area": "Bhavnagar Road",
    "district": "Rajkot",
    "state": "Gujarat",
    "pincode": "360002",
    "latitude": 22.28146,
    "longitude": 70.83321
  },
  {
    "_id": {
      "$oid": "6539279ee0265e4af914b932"
    },
    "name": "Hazira Marine Police Station",
    "area": "Adajan Hajira Road",
    "district": "Gam",
    "state": "Gujarat",
    "pincode": "",
    "latitude": 21.09657,
    "longitude": 72.65087
  },
  {
    "_id": {
      "$oid": "6539279ee0265e4af914b933"
    },
    "name": "Hazira Police Station",
    "area": "Hazira Road",
    "district": "And",
    "state": "Gujarat",
    "pincode": "",
    "latitude": 21.14657,
    "longitude": 72.66049
  },
  {
    "_id": {
      "$oid": "6539279ee0265e4af914b934"
    },
    "name": "Ankleshwar Police Station",
    "area": "NH-64",
    "district": "Anklesvar",
    "state": "Gujarat",
    "pincode": "393001",
    "latitude": 21.6337,
    "longitude": 72.99245
  },
  {
    "_id": {
      "$oid": "6539279ee0265e4af914b935"
    },
    "name": "Ankleshwar Rural Police Station",
    "area": "Ankleshwar Civil Court",
    "district": "Anklesvar",
    "state": "Gujarat",
    "pincode": "393001",
    "latitude": 21.62783,
    "longitude": 73.00896
  },
  {
    "_id": {
      "$oid": "6539279ee0265e4af914b936"
    },
    "name": "Talod Police Station",
    "area": "Civil Road",
    "district": "383215",
    "state": "Gujarat",
    "pincode": "",
    "latitude": 23.35132,
    "longitude": 72.94932
  },
  {
    "_id": {
      "$oid": "6539279ee0265e4af914b937"
    },
    "name": "Mangrol Police Station",
    "area": "Sh97",
    "district": "Peer",
    "state": "Gujarat",
    "pincode": "",
    "latitude": 21.12445,
    "longitude": 70.11995
  },
  {
    "_id": {
      "$oid": "6539279ee0265e4af914b938"
    },
    "name": "Khanpur Police Station",
    "area": "Bakor Road",
    "district": "Bakor",
    "state": "Gujarat",
    "pincode": "",
    "latitude": 23.34313,
    "longitude": 73.60609
  },
  {
    "_id": {
      "$oid": "6539279ee0265e4af914b939"
    },
    "name": "Madiya Police Chowki",
    "area": "SH-5",
    "district": "383317",
    "state": "Gujarat",
    "pincode": "",
    "latitude": 23.53836,
    "longitude": 73.31244
  },
  {
    "_id": {
      "$oid": "6539279ee0265e4af914b93a"
    },
    "name": "Chipwad Police Chowki Valsad",
    "area": "Sri Chamunda",
    "district": "Road",
    "state": "Gujarat",
    "pincode": "396001",
    "latitude": 20.61826,
    "longitude": 72.93246
  },
  {
    "_id": {
      "$oid": "6539279ee0265e4af914b93b"
    },
    "name": "Nayab Police Station",
    "area": "Porbandar Airport Road",
    "district": "Sai",
    "state": "Gujarat",
    "pincode": "",
    "latitude": 21.64575,
    "longitude": 69.6567
  },
  {
    "_id": {
      "$oid": "6539279ee0265e4af914b93c"
    },
    "name": "Nayab Police Station",
    "area": "Station Road",
    "district": "Society",
    "state": "Gujarat",
    "pincode": "",
    "latitude": 22.77904,
    "longitude": 73.62122
  },
  {
    "_id": {
      "$oid": "6539279ee0265e4af914b93d"
    },
    "name": "Nayab Police Station",
    "area": "Bhagatsinh Road",
    "district": "Gavliwad",
    "state": "Gujarat",
    "pincode": "",
    "latitude": 22.30003,
    "longitude": 70.79852
  },
  {
    "_id": {
      "$oid": "6539279ee0265e4af914b93e"
    },
    "name": "Nayab Police Station",
    "area": "Sant Kabir Road",
    "district": "Mohalla",
    "state": "Gujarat",
    "pincode": "",
    "latitude": 22.29674,
    "longitude": 73.21541
  },
  {
    "_id": {
      "$oid": "6539279ee0265e4af914b93f"
    },
    "name": "Paliwal Police Station",
    "area": "Sachin GIDC Road 6",
    "district": "Gabheni",
    "state": "Gujarat",
    "pincode": "",
    "latitude": 21.09204,
    "longitude": 72.86225
  },
  {
    "_id": {
      "$oid": "6539279ee0265e4af914b940"
    },
    "name": "Vav Police Station",
    "area": "Nh15",
    "district": "385575",
    "state": "Gujarat",
    "pincode": "",
    "latitude": 24.35965,
    "longitude": 71.51637
  },
  {
    "_id": {
      "$oid": "6539279ee0265e4af914b941"
    },
    "name": "Shaktinagar Police Chowki",
    "area": "Khodiyar Colony",
    "district": "Colony",
    "state": "Gujarat",
    "pincode": "",
    "latitude": 22.46781,
    "longitude": 70.04811
  },
  {
    "_id": {
      "$oid": "6539279ee0265e4af914b942"
    },
    "name": "Sabarmati Police Commissioner Office",
    "area": "Bulakhidas Road",
    "district": "Police",
    "state": "Gujarat",
    "pincode": "",
    "latitude": 23.08564,
    "longitude": 72.59127
  },
  {
    "_id": {
      "$oid": "6539279ee0265e4af914b943"
    },
    "name": "Gundavadi Police Chowki",
    "area": "Canal Road",
    "district": "Laxmiwadi",
    "state": "Gujarat",
    "pincode": "",
    "latitude": 22.28881,
    "longitude": 70.80806
  },
  {
    "_id": {
      "$oid": "6539279ee0265e4af914b944"
    },
    "name": "Bhiloda Police Chowki",
    "area": "SH-10",
    "district": "383245",
    "state": "Gujarat",
    "pincode": "",
    "latitude": 23.76972,
    "longitude": 73.2406
  },
  {
    "_id": {
      "$oid": "6539279ee0265e4af914b945"
    },
    "name": "Bhiloda Police Station",
    "area": "SH-10",
    "district": "383245",
    "state": "Gujarat",
    "pincode": "",
    "latitude": 23.76961,
    "longitude": 73.24053
  },
  {
    "_id": {
      "$oid": "6539279ee0265e4af914b946"
    },
    "name": "Police Station Mithapur",
    "area": "NH-51",
    "district": "365555",
    "state": "Gujarat",
    "pincode": "",
    "latitude": 20.929,
    "longitude": 71.3457
  },
  {
    "_id": {
      "$oid": "6539279ee0265e4af914b947"
    },
    "name": "Nava Bilimora Police Station",
    "area": "Karmavir Nagar",
    "district": "Sh210",
    "state": "Gujarat",
    "pincode": "",
    "latitude": 22.71866,
    "longitude": 72.87067
  },
  {
    "_id": {
      "$oid": "6539279ee0265e4af914b948"
    },
    "name": "Dawrka Police Station",
    "area": "NH151A",
    "district": "Dwarka",
    "state": "Gujarat",
    "pincode": "",
    "latitude": 22.24544,
    "longitude": 68.96431
  },
  {
    "_id": {
      "$oid": "6539279ee0265e4af914b949"
    },
    "name": "Kasor Out Post Police",
    "area": "Kasor Road",
    "district": "Kasor",
    "state": "Gujarat",
    "pincode": "",
    "latitude": 22.54928,
    "longitude": 72.77582
  },
  {
    "_id": {
      "$oid": "6539279ee0265e4af914b94a"
    },
    "name": "Tambu Police Station",
    "area": "Sant Surdas Road",
    "district": "Vadigam",
    "state": "Gujarat",
    "pincode": "",
    "latitude": 23.03557,
    "longitude": 72.59294
  },
  {
    "_id": {
      "$oid": "6539279ee0265e4af914b94b"
    },
    "name": "SRP Tambu Police Chordia Panigate",
    "area": "Gurunathan Mandir",
    "district": "Moghulwada",
    "state": "Gujarat",
    "pincode": "",
    "latitude": 22.29745,
    "longitude": 73.21545
  },
  {
    "_id": {
      "$oid": "6539279ee0265e4af914b94c"
    },
    "name": "Nandasan Police Station",
    "area": "Sh189",
    "district": "Nandasan",
    "state": "Gujarat",
    "pincode": "",
    "latitude": 23.37978,
    "longitude": 72.40687
  },
  {
    "_id": {
      "$oid": "6539279ee0265e4af914b94d"
    },
    "name": "Limkheda Police Station",
    "area": "NH147D",
    "district": "Town",
    "state": "Gujarat",
    "pincode": "",
    "latitude": 22.83274,
    "longitude": 73.98735
  },
  {
    "_id": {
      "$oid": "6539279ee0265e4af914b94e"
    },
    "name": "Police Station-Nakhatrana",
    "area": "SH-42",
    "district": "Nagalpar",
    "state": "Gujarat",
    "pincode": "",
    "latitude": 23.3446,
    "longitude": 69.2713
  },
  {
    "_id": {
      "$oid": "6539279ee0265e4af914b94f"
    },
    "name": "Hudco Police Chowki",
    "area": "Kothariya Main Road",
    "district": "Nagar",
    "state": "Gujarat",
    "pincode": "",
    "latitude": 22.26302,
    "longitude": 70.81483
  },
  {
    "_id": {
      "$oid": "6539279ee0265e4af914b950"
    },
    "name": "Narsanda Police Station",
    "area": "Narol Naroda Road",
    "district": "Taluka",
    "state": "Gujarat",
    "pincode": "",
    "latitude": 22.63205,
    "longitude": 72.90004
  },
  {
    "_id": {
      "$oid": "6539279ee0265e4af914b951"
    },
    "name": "Rangpur Police Station",
    "area": "Rangapur Road",
    "district": "Rangapur",
    "state": "Gujarat",
    "pincode": "",
    "latitude": 22.37541,
    "longitude": 74.16789
  },
  {
    "_id": {
      "$oid": "6539279ee0265e4af914b952"
    },
    "name": "Amraiwadi Police Station",
    "area": "Amraiwadi Village Road",
    "district": "Amraiwadi",
    "state": "Gujarat",
    "pincode": "",
    "latitude": 23.00667,
    "longitude": 72.62486
  },
  {
    "_id": {
      "$oid": "6539279ee0265e4af914b953"
    },
    "name": "Ghodasar Police Station",
    "area": "Ghodasar Road",
    "district": "Ghodasar",
    "state": "Gujarat",
    "pincode": "",
    "latitude": 22.98649,
    "longitude": 72.61141
  },
  {
    "_id": {
      "$oid": "6539279ee0265e4af914b954"
    },
    "name": "Ranpur Police Station",
    "area": "Ranpur 382245",
    "district": "",
    "state": "Gujarat",
    "pincode": "",
    "latitude": 22.35345,
    "longitude": 71.71433
  },
  {
    "_id": {
      "$oid": "6539279ee0265e4af914b955"
    },
    "name": "Gotri Police Station",
    "area": "Gotri Road",
    "district": "Gotri",
    "state": "Gujarat",
    "pincode": "",
    "latitude": 22.31001,
    "longitude": 73.13865
  },
  {
    "_id": {
      "$oid": "6539279ee0265e4af914b956"
    },
    "name": "Gotri Police Station",
    "area": "Gotri To Sindhrot Road",
    "district": "Hyundai",
    "state": "Gujarat",
    "pincode": "",
    "latitude": 22.31824,
    "longitude": 73.12367
  },
  {
    "_id": {
      "$oid": "6539279ee0265e4af914b957"
    },
    "name": "Gotri Road Police Station",
    "area": "S K Chaudhari Marg",
    "district": "Nagar",
    "state": "Gujarat",
    "pincode": "",
    "latitude": 22.31338,
    "longitude": 73.1452
  },
  {
    "_id": {
      "$oid": "6539279ee0265e4af914b958"
    },
    "name": "Kanij Police Chowki",
    "area": "SH-3",
    "district": "387120",
    "state": "Gujarat",
    "pincode": "",
    "latitude": 22.87473,
    "longitude": 72.7281
  },
  {
    "_id": {
      "$oid": "6539279ee0265e4af914b959"
    },
    "name": "Bakrol Road Post Police Chowki",
    "area": "NH751",
    "district": "Village",
    "state": "Gujarat",
    "pincode": "",
    "latitude": 22.93649,
    "longitude": 72.49765
  },
  {
    "_id": {
      "$oid": "6539279ee0265e4af914b95a"
    },
    "name": "Police Station Valod",
    "area": "Sh187 Ambaji Street",
    "district": "394640",
    "state": "Gujarat",
    "pincode": "",
    "latitude": 21.04807,
    "longitude": 73.2621
  },
  {
    "_id": {
      "$oid": "6539279ee0265e4af914b95b"
    },
    "name": "Kamalpura Police Station",
    "area": "Kamalpura Road",
    "district": "Ambedker",
    "state": "Gujarat",
    "pincode": "",
    "latitude": 24.17685,
    "longitude": 72.44351
  },
  {
    "_id": {
      "$oid": "6539279ee0265e4af914b95c"
    },
    "name": "Sihor Police Station",
    "area": "Parmat St",
    "district": "Post",
    "state": "Gujarat",
    "pincode": "",
    "latitude": 21.7137,
    "longitude": 71.96008
  },
  {
    "_id": {
      "$oid": "6539279ee0265e4af914b95d"
    },
    "name": "Sagbara Police Station",
    "area": "NH753B",
    "district": "393050",
    "state": "Gujarat",
    "pincode": "",
    "latitude": 21.54418,
    "longitude": 73.79127
  },
  {
    "_id": {
      "$oid": "6539279ee0265e4af914b95e"
    },
    "name": "Juhapura Police Chowki",
    "area": "Jawaharlal Nehru Road",
    "district": "Park",
    "state": "Gujarat",
    "pincode": "",
    "latitude": 22.99355,
    "longitude": 72.52677
  },
  {
    "_id": {
      "$oid": "6539279ee0265e4af914b95f"
    },
    "name": "Karnawati Police Chowki",
    "area": "Lambha Vatva Road",
    "district": "Vatwa",
    "state": "Gujarat",
    "pincode": "",
    "latitude": 22.94659,
    "longitude": 72.59639
  },
  {
    "_id": {
      "$oid": "6539279ee0265e4af914b960"
    },
    "name": "Police Station-Samakhiyali",
    "area": "Near Nh8a",
    "district": "Sub",
    "state": "Gujarat",
    "pincode": "",
    "latitude": 23.3073,
    "longitude": 70.4967
  },
  {
    "_id": {
      "$oid": "6539279ee0265e4af914b961"
    },
    "name": "Kavat Police Station Kadipani",
    "area": "SH-62",
    "district": "391175",
    "state": "Gujarat",
    "pincode": "",
    "latitude": 22.01163,
    "longitude": 74.09178
  },
  {
    "_id": {
      "$oid": "6539279ee0265e4af914b962"
    },
    "name": "Bapod Police Station",
    "area": "Swarnim Gujarat Ring Road",
    "district": "Nagar",
    "state": "Gujarat",
    "pincode": "",
    "latitude": 22.30551,
    "longitude": 73.23887
  },
  {
    "_id": {
      "$oid": "6539279ee0265e4af914b963"
    },
    "name": "Banba Gate Police Chowki",
    "area": "SH-97",
    "district": "360490",
    "state": "Gujarat",
    "pincode": "",
    "latitude": 21.74073,
    "longitude": 70.28392
  },
  {
    "_id": {
      "$oid": "6539279ee0265e4af914b964"
    },
    "name": "Police Station B Chavadi",
    "area": "New Station Road",
    "district": "Dhatia",
    "state": "Gujarat",
    "pincode": "",
    "latitude": 23.24957,
    "longitude": 69.66856
  },
  {
    "_id": {
      "$oid": "6539279ee0265e4af914b965"
    },
    "name": "Chavadi Gate Police Chowki",
    "area": "Vadava Road",
    "district": "Bagh",
    "state": "Gujarat",
    "pincode": "",
    "latitude": 21.7734,
    "longitude": 72.1364
  },
  {
    "_id": {
      "$oid": "6539279ee0265e4af914b966"
    },
    "name": "Pavagadh Police Station",
    "area": "Halol Pavagad Road",
    "district": "Pavagad",
    "state": "Gujarat",
    "pincode": "",
    "latitude": 22.48475,
    "longitude": 73.53453
  },
  {
    "_id": {
      "$oid": "6539279ee0265e4af914b967"
    },
    "name": "New Maninagar Policeh Chowki",
    "area": "Sardar Patel Ring Road",
    "district": "Maninagar",
    "state": "Gujarat",
    "pincode": "",
    "latitude": 22.98439,
    "longitude": 72.64253
  },
  {
    "_id": {
      "$oid": "6539279ee0265e4af914b968"
    },
    "name": "Maninagar Police Station",
    "area": "Lala Lajpatrai Marg",
    "district": "Nagar",
    "state": "Gujarat",
    "pincode": "",
    "latitude": 22.99841,
    "longitude": 72.60241
  },
  {
    "_id": {
      "$oid": "6539279ee0265e4af914b969"
    },
    "name": "Maninagar Police Chowki",
    "area": "Ramkrishna Paramhansa Road",
    "district": "Nagar",
    "state": "Gujarat",
    "pincode": "",
    "latitude": 23.00017,
    "longitude": 72.60709
  },
  {
    "_id": {
      "$oid": "6539279ee0265e4af914b96a"
    },
    "name": "Railway Station Police Chowki Maninagar",
    "area": "Punit Maharaj Road",
    "district": "Nagar",
    "state": "Gujarat",
    "pincode": "",
    "latitude": 22.99826,
    "longitude": 72.61144
  },
  {
    "_id": {
      "$oid": "6539279ee0265e4af914b96b"
    },
    "name": "Dosabhai Bag Police Station",
    "area": "Tower Rd",
    "district": "Bank",
    "state": "Gujarat",
    "pincode": "",
    "latitude": 23.70009,
    "longitude": 72.54621
  },
  {
    "_id": {
      "$oid": "6539279ee0265e4af914b96c"
    },
    "name": "Jayarathna Police Chowki",
    "area": "R V Desai Road",
    "district": "Kevdabaug",
    "state": "Gujarat",
    "pincode": "",
    "latitude": 22.29281,
    "longitude": 73.20335
  },
  {
    "_id": {
      "$oid": "6539279ee0265e4af914b96d"
    },
    "name": "Police Station-Deesa",
    "area": "Nh14 Banaskantha Road",
    "district": "385530",
    "state": "Gujarat",
    "pincode": "",
    "latitude": 24.1506,
    "longitude": 71.98456
  },
  {
    "_id": {
      "$oid": "6539279ee0265e4af914b96e"
    },
    "name": "Police Station-Deesa",
    "area": "Nh14 Banaskantha Road",
    "district": "385535",
    "state": "Gujarat",
    "pincode": "",
    "latitude": 24.25767,
    "longitude": 72.18946
  },
  {
    "_id": {
      "$oid": "6539279ee0265e4af914b96f"
    },
    "name": "Deesa Town Police Station",
    "area": "Jagruti Trust Hospital",
    "district": "Nagar",
    "state": "Gujarat",
    "pincode": "",
    "latitude": 24.25553,
    "longitude": 72.1759
  },
  {
    "_id": {
      "$oid": "6539279ee0265e4af914b970"
    },
    "name": "Thorala Police Station",
    "area": "Bhavnagar Road",
    "district": "Pura",
    "state": "Gujarat",
    "pincode": "",
    "latitude": 22.29178,
    "longitude": 70.8225
  },
  {
    "_id": {
      "$oid": "6539279ee0265e4af914b971"
    },
    "name": "Kosamba Police Chowki",
    "area": "Nana Borsara",
    "district": "394125",
    "state": "Gujarat",
    "pincode": "",
    "latitude": 21.52759,
    "longitude": 73.00462
  },
  {
    "_id": {
      "$oid": "6539279ee0265e4af914b972"
    },
    "name": "Kadi Police Station",
    "area": "Kadi",
    "district": "Gujarat",
    "state": "Gujarat",
    "pincode": "India",
    "latitude": 23.2753478,
    "longitude": 72.31922825
  },
  {
    "_id": {
      "$oid": "6539279ee0265e4af914b973"
    },
    "name": "Police station-Fatepuri",
    "area": "Ahmedabad",
    "district": "Gujarat",
    "state": "Gujarat",
    "pincode": "380007",
    "latitude": 23.00743,
    "longitude": 72.55756
  },
  {
    "_id": {
      "$oid": "6539279ee0265e4af914b974"
    },
    "name": "Navapura Police Chowki",
    "area": "31",
    "district": "Road",
    "state": "Gujarat",
    "pincode": "395003",
    "latitude": 21.196296,
    "longitude": 72.834486
  },
  {
    "_id": {
      "$oid": "6539279ee0265e4af914b975"
    },
    "name": "Apaksh Sarkar",
    "area": "NIKOL WORD",
    "district": "Ahmedabad",
    "state": "Gujarat",
    "pincode": "382330",
    "latitude": 23.0442791,
    "longitude": 72.6746216
  },
  {
    "_id": {
      "$oid": "6539279ee0265e4af914b976"
    },
    "name": "Gadhechi Police Chowki",
    "area": "Railway Compound",
    "district": "Bhavnagar",
    "state": "Gujarat",
    "pincode": "364003",
    "latitude": 21.765844,
    "longitude": 72.117101
  },
  {
    "_id": {
      "$oid": "6539279ee0265e4af914b977"
    },
    "name": "Kasba Police Chowki",
    "area": "Mehsana",
    "district": "Gujarat",
    "state": "Gujarat",
    "pincode": "384001",
    "latitude": 23.599491,
    "longitude": 72.393123
  },
  {
    "_id": {
      "$oid": "6539279ee0265e4af914b978"
    },
    "name": "Mora Police Station",
    "area": "Surat",
    "district": "394510",
    "state": "Gujarat",
    "pincode": "394510",
    "latitude": 21.178543746,
    "longitude": 72.659571593
  },
  {
    "_id": {
      "$oid": "6539279ee0265e4af914b979"
    },
    "name": "Police Station-Bhuj",
    "area": "Bhuj 370001",
    "district": "Bhuj 370001",
    "state": "Gujarat",
    "pincode": "Bhuj 370001",
    "latitude": 23.255,
    "longitude": 69.65712
  },
  {
    "_id": {
      "$oid": "6539279ee0265e4af914b97a"
    },
    "name": "Police Station-Chhota Udaypur",
    "area": "Chhota Udepur",
    "district": "Gujarat",
    "state": "Gujarat",
    "pincode": "391165",
    "latitude": 22.3031,
    "longitude": 74.01601
  },
  {
    "_id": {
      "$oid": "6539279ee0265e4af914b97b"
    },
    "name": "Ajit Mill Police Chowki",
    "area": "Ajit Mill Char Rasta",
    "district": "Ahmedabad",
    "state": "Gujarat",
    "pincode": "380023",
    "latitude": 23.019945,
    "longitude": 72.632955
  },
  {
    "_id": {
      "$oid": "6539279ee0265e4af914b97c"
    },
    "name": "Police Head Quarters",
    "area": "Maharshi Arvinda Marg",
    "district": "Police",
    "state": "Gujarat",
    "pincode": "362001",
    "latitude": 21.514901,
    "longitude": 70.459844
  },
  {
    "_id": {
      "$oid": "6539279ee0265e4af914b97d"
    },
    "name": "Gondal City Police Station",
    "area": "Opp-SRP Camp",
    "district": "Gondal",
    "state": "Gujarat",
    "pincode": "India",
    "latitude": 21.963161981,
    "longitude": 70.8022559949
  },
  {
    "_id": {
      "$oid": "6539279ee0265e4af914b97e"
    },
    "name": "Government Police School",
    "area": "Police Line Kehti Road",
    "district": "Anand",
    "state": "Gujarat",
    "pincode": "388001",
    "latitude": 22.542861,
    "longitude": 72.960725
  },
  {
    "_id": {
      "$oid": "6539279ee0265e4af914b97f"
    },
    "name": "Gingita Police Station",
    "area": "Dr Ambedkar Marg",
    "district": "Ahmedabad",
    "state": "Gujarat",
    "pincode": "India",
    "latitude": 23.03037,
    "longitude": 72.58754
  },
  {
    "_id": {
      "$oid": "6539279ee0265e4af914b980"
    },
    "name": "Police Station-Bagbahra",
    "area": "NH-217",
    "district": "Bagbahara",
    "state": "Gujarat",
    "pincode": "493449",
    "latitude": 21.05163,
    "longitude": 82.37867
  },
  {
    "_id": {
      "$oid": "6539279ee0265e4af914b981"
    },
    "name": "Chandola Police Chowki",
    "area": "Dani Limda Road",
    "district": "Ahmedabad",
    "state": "Gujarat",
    "pincode": "380028",
    "latitude": 22.98932,
    "longitude": 72.582346
  },
  {
    "_id": {
      "$oid": "6539279ee0265e4af914b982"
    },
    "name": "Shirapur Police Station",
    "area": "Shirpur",
    "district": "Maharashtra",
    "state": "Gujarat",
    "pincode": "Shirpur",
    "latitude": 21.3485,
    "longitude": 74.88328
  },
  {
    "_id": {
      "$oid": "6539279ee0265e4af914b983"
    },
    "name": "city police-station, surendranagar",
    "area": "Dudhrej",
    "district": "Dudhrej",
    "state": "Gujarat",
    "pincode": "Dudhrej",
    "latitude": 22.7228094153,
    "longitude": 71.6446283953
  },
  {
    "_id": {
      "$oid": "6539279ee0265e4af914b984"
    },
    "name": "Police Station-Tadipatri",
    "area": "SH-31",
    "district": "Tadpatri",
    "state": "Gujarat",
    "pincode": "515411",
    "latitude": 14.89794,
    "longitude": 78.02768
  },
  {
    "_id": {
      "$oid": "6539279ee0265e4af914b985"
    },
    "name": "Police Station-Dhngnghra",
    "area": "SH-7",
    "district": "Dhrangadhra",
    "state": "Gujarat",
    "pincode": "363310",
    "latitude": 22.99711,
    "longitude": 71.4658
  },
  {
    "_id": {
      "$oid": "6539279ee0265e4af914b986"
    },
    "name": "Police Chowki-Kasak",
    "area": "Bharuch",
    "district": "Gujarat",
    "state": "Gujarat",
    "pincode": "392012",
    "latitude": 21.70341,
    "longitude": 73.00231
  },
  {
    "_id": {
      "$oid": "6539279ee0265e4af914b987"
    },
    "name": "Police Station-Zinzuwada",
    "area": "Dasada",
    "district": "Gujarat",
    "state": "Gujarat",
    "pincode": "India",
    "latitude": 23.34976,
    "longitude": 71.65529
  },
  {
    "_id": {
      "$oid": "6539279ee0265e4af914b988"
    },
    "name": "Halol Police Station",
    "area": "Halol",
    "district": "Gujarat",
    "state": "Gujarat",
    "pincode": "389350",
    "latitude": 22.501645,
    "longitude": 73.481672
  },
  {
    "_id": {
      "$oid": "6539279ee0265e4af914b989"
    },
    "name": "Police Station-Champaner",
    "area": "Halol",
    "district": "Gujarat",
    "state": "Gujarat",
    "pincode": "389360",
    "latitude": 22.46794,
    "longitude": 73.52402
  },
  {
    "_id": {
      "$oid": "6539279ee0265e4af914b98a"
    },
    "name": "Police Station-Morbi",
    "area": "SH-22",
    "district": "Morbi",
    "state": "Gujarat",
    "pincode": "363642",
    "latitude": 22.85899638,
    "longitude": 70.85265571
  },
  {
    "_id": {
      "$oid": "6539279ee0265e4af914b98b"
    },
    "name": "Police Station-Civil Hospital",
    "area": "Meganei Road",
    "district": "Ahmedabad",
    "state": "Gujarat",
    "pincode": "380016",
    "latitude": 23.05309,
    "longitude": 72.61041
  },
  {
    "_id": {
      "$oid": "6539279ee0265e4af914b98c"
    },
    "name": "Bajrangwadi Police Chowki",
    "area": "Jam Nagar Road",
    "district": "Rajkot",
    "state": "Gujarat",
    "pincode": "360006",
    "latitude": 22.321285,
    "longitude": 70.781525
  },
  {
    "_id": {
      "$oid": "6539279ee0265e4af914b98d"
    },
    "name": "Khokhra Police Station",
    "area": "Ahmedabad",
    "district": "Gujarat",
    "state": "Gujarat",
    "pincode": "India",
    "latitude": 22.9939006,
    "longitude": 72.620757
  },
  {
    "_id": {
      "$oid": "6539279ee0265e4af914b98e"
    },
    "name": "Police Station-Guvnl",
    "area": "Dudh Sagar Road",
    "district": "Rajkot",
    "state": "Gujarat",
    "pincode": "360003",
    "latitude": 22.29401,
    "longitude": 70.82098
  },
  {
    "_id": {
      "$oid": "6539279ee0265e4af914b98f"
    },
    "name": "Police Parade Ground",
    "area": "Head Quarter Road",
    "district": "Police",
    "state": "Gujarat",
    "pincode": "362001",
    "latitude": 21.513299,
    "longitude": 70.458776
  },
  {
    "_id": {
      "$oid": "6539279ee0265e4af914b990"
    },
    "name": "Ghataprabha Police Station",
    "area": "Ghataprabha",
    "district": "Karnataka",
    "state": "Gujarat",
    "pincode": "591306",
    "latitude": 16.235933,
    "longitude": 74.765133
  },
  {
    "_id": {
      "$oid": "6539279ee0265e4af914b991"
    },
    "name": "Marine Police Station",
    "area": "Surat",
    "district": "Gujarat",
    "state": "Gujarat",
    "pincode": "394270",
    "latitude": 21.147077,
    "longitude": 72.661101
  },
  {
    "_id": {
      "$oid": "6539279ee0265e4af914b992"
    },
    "name": "Police Station-Raipur",
    "area": "Thasra",
    "district": "Gujarat",
    "state": "Gujarat",
    "pincode": "388225",
    "latitude": 22.78688,
    "longitude": 73.1045
  },
  {
    "_id": {
      "$oid": "6539279ee0265e4af914b993"
    },
    "name": "Killa Pardi Police Station",
    "area": "Pardi",
    "district": "Gujarat",
    "state": "Gujarat",
    "pincode": "396125",
    "latitude": 20.507731,
    "longitude": 72.946563
  },
  {
    "_id": {
      "$oid": "6539279ee0265e4af914b994"
    },
    "name": "Alipura Police Chowki",
    "area": "Sankheda",
    "district": "Gujarat",
    "state": "Gujarat",
    "pincode": "391135",
    "latitude": 22.275111,
    "longitude": 73.716435
  },
  {
    "_id": {
      "$oid": "6539279ee0265e4af914b995"
    },
    "name": "Police Station-Dhirol",
    "area": "Talaja",
    "district": "Gujarat",
    "state": "Gujarat",
    "pincode": "364150",
    "latitude": 21.4783,
    "longitude": 72.03494
  },
  {
    "_id": {
      "$oid": "6539279ee0265e4af914b996"
    },
    "name": "Saurabh Police Chowki",
    "area": "TGB Hotel Road",
    "district": "Amarapali",
    "state": "Gujarat",
    "pincode": "395009",
    "latitude": 21.193668,
    "longitude": 72.783419
  },
  {
    "_id": {
      "$oid": "6539279ee0265e4af914b997"
    },
    "name": "Kishanwadi Police Station",
    "area": "Vadodara",
    "district": "Gujarat",
    "state": "Gujarat",
    "pincode": "390019",
    "latitude": 22.30924,
    "longitude": 73.22937
  },
  {
    "_id": {
      "$oid": "6539279ee0265e4af914b998"
    },
    "name": "Kishan Vadi Police Chowki",
    "area": "Vadodara",
    "district": "Gujarat",
    "state": "Gujarat",
    "pincode": "390019",
    "latitude": 22.308983,
    "longitude": 73.228522
  },
  {
    "_id": {
      "$oid": "6539279ee0265e4af914b999"
    },
    "name": "Police Station-Lakhtar",
    "area": "Lakhtar",
    "district": "Gujarat",
    "state": "Gujarat",
    "pincode": "India",
    "latitude": 22.85988,
    "longitude": 71.78313
  },
  {
    "_id": {
      "$oid": "6539279ee0265e4af914b99a"
    },
    "name": "Ahmedabad Traffic Police",
    "area": "Ahmedabad",
    "district": "Gujarat",
    "state": "Gujarat",
    "pincode": "380004",
    "latitude": 23.05451,
    "longitude": 72.58761
  },
  {
    "_id": {
      "$oid": "6539279ee0265e4af914b99b"
    },
    "name": "Police Station Salon Bazar",
    "area": "Nadiad 387001",
    "district": "Nadiad 387001",
    "state": "Gujarat",
    "pincode": "Nadiad 387001",
    "latitude": 22.69579,
    "longitude": 72.870139
  },
  {
    "_id": {
      "$oid": "6539279ee0265e4af914b99c"
    },
    "name": "Police Station-Haripura",
    "area": "Ahmedabad",
    "district": "Gujarat",
    "state": "Gujarat",
    "pincode": "380008",
    "latitude": 22.98821,
    "longitude": 72.61695
  },
  {
    "_id": {
      "$oid": "6539279ee0265e4af914b99d"
    },
    "name": "Buhari Police Station",
    "area": "Buhari",
    "district": "Gujarat",
    "state": "Gujarat",
    "pincode": "394630",
    "latitude": 20.967255,
    "longitude": 73.309295
  },
  {
    "_id": {
      "$oid": "6539279ee0265e4af914b99e"
    },
    "name": "Police Chowki",
    "area": "Bhavnagar 364002",
    "district": "Bhavnagar 364002",
    "state": "Gujarat",
    "pincode": "Bhavnagar 364002",
    "latitude": 21.748806,
    "longitude": 72.148173
  },
  {
    "_id": {
      "$oid": "6539279ee0265e4af914b99f"
    },
    "name": "Police Parade Ground",
    "area": "RTO Road",
    "district": "Area",
    "state": "Gujarat",
    "pincode": "Bhavnagar 364002",
    "latitude": 21.755282,
    "longitude": 72.130759
  },
  {
    "_id": {
      "$oid": "6539279ee0265e4af914b9a0"
    },
    "name": "Akhlol Police Station",
    "area": "Gaurath Path",
    "district": "364004",
    "state": "Gujarat",
    "pincode": "Bhavnagar 364004",
    "latitude": 21.7511,
    "longitude": 72.0886
  },
  {
    "_id": {
      "$oid": "6539279ee0265e4af914b9a1"
    },
    "name": "Vatger Police Chowki",
    "area": "Press Road",
    "district": "Chowk",
    "state": "Gujarat",
    "pincode": "Bhavnagar 364001",
    "latitude": 21.783488,
    "longitude": 72.152758
  },
  {
    "_id": {
      "$oid": "6539279ee0265e4af914b9a2"
    },
    "name": "Ghodha Gate Police Chowki",
    "area": "Khhar Gate Road",
    "district": "364001",
    "state": "Gujarat",
    "pincode": "Bhavnagar 364001",
    "latitude": 21.776048,
    "longitude": 72.1454
  },
  {
    "_id": {
      "$oid": "6539279ee0265e4af914b9a3"
    },
    "name": "Ukai Police Station",
    "area": "Songadh",
    "district": "Gujarat",
    "state": "Gujarat",
    "pincode": "394670",
    "latitude": 21.231642,
    "longitude": 73.5782695
  },
  {
    "_id": {
      "$oid": "6539279ee0265e4af914b9a4"
    },
    "name": "Police Station Nardipur",
    "area": "SH-138",
    "district": "Nardipur",
    "state": "Gujarat",
    "pincode": "",
    "latitude": 23.33188,
    "longitude": 72.5638
  },
  {
    "_id": {
      "$oid": "6539279ee0265e4af914b9a5"
    },
    "name": "Jasdan Police Station",
    "area": "SH-119",
    "district": "360050",
    "state": "Gujarat",
    "pincode": "",
    "latitude": 22.10451,
    "longitude": 71.19843
  },
  {
    "_id": {
      "$oid": "6539279ee0265e4af914b9a6"
    },
    "name": "Gadhechi Police Chowki",
    "area": "Tulsinagar",
    "district": "Para",
    "state": "Gujarat",
    "pincode": "",
    "latitude": 21.7657,
    "longitude": 72.1178
  },
  {
    "_id": {
      "$oid": "6539279ee0265e4af914b9a7"
    },
    "name": "Lambe Hanuman Police Chowki",
    "area": "Akshardeep Vidya Bhawan",
    "district": "Hanuman",
    "state": "Gujarat",
    "pincode": "",
    "latitude": 21.20475,
    "longitude": 72.8448
  },
  {
    "_id": {
      "$oid": "6539279ee0265e4af914b9a8"
    },
    "name": "Hatkeshwar Police Station",
    "area": "Khokhra Road",
    "district": "Nagar",
    "state": "Gujarat",
    "pincode": "",
    "latitude": 23.00095,
    "longitude": 72.62274
  },
  {
    "_id": {
      "$oid": "6539279ee0265e4af914b9a9"
    },
    "name": "Gambhirpura Police Station",
    "area": "Gambhirpura",
    "district": "383430",
    "state": "Gujarat",
    "pincode": "",
    "latitude": 23.85898,
    "longitude": 73.01606
  },
  {
    "_id": {
      "$oid": "6539279ee0265e4af914b9aa"
    },
    "name": "Radhu Out Police Chowki",
    "area": "Dholka Kheda Road",
    "district": "Radhu",
    "state": "Gujarat",
    "pincode": "",
    "latitude": 22.70252,
    "longitude": 72.58308
  },
  {
    "_id": {
      "$oid": "6539279ee0265e4af914b9ab"
    },
    "name": "Devriya Police Chowki",
    "area": "NH151A",
    "district": "361010",
    "state": "Gujarat",
    "pincode": "",
    "latitude": 22.30759,
    "longitude": 69.73268
  },
  {
    "_id": {
      "$oid": "6539279ee0265e4af914b9ac"
    },
    "name": "Police Station, Jamjodhpur",
    "area": "Bal Mandir Road",
    "district": "Town",
    "state": "Gujarat",
    "pincode": "",
    "latitude": 21.90201,
    "longitude": 70.03433
  },
  {
    "_id": {
      "$oid": "6539279ee0265e4af914b9ad"
    },
    "name": "Udhana Police Station",
    "area": "Surat Dumas Road",
    "district": "Colony",
    "state": "Gujarat",
    "pincode": "",
    "latitude": 21.13858,
    "longitude": 72.75199
  },
  {
    "_id": {
      "$oid": "6539279ee0265e4af914b9ae"
    },
    "name": "Madadnish Police Commissioner office B Division Udhana",
    "area": "Station Road",
    "district": "Udhana",
    "state": "Gujarat",
    "pincode": "",
    "latitude": 21.17006,
    "longitude": 72.84236
  },
  {
    "_id": {
      "$oid": "6539279ee0265e4af914b9af"
    },
    "name": "Shihor Police Station",
    "area": "SH-25",
    "district": "364240",
    "state": "Gujarat",
    "pincode": "",
    "latitude": 21.71649,
    "longitude": 71.95863
  },
  {
    "_id": {
      "$oid": "6539279ee0265e4af914b9b0"
    },
    "name": "Sankheda Police Station",
    "area": "Sankheda Road",
    "district": "391145",
    "state": "Gujarat",
    "pincode": "",
    "latitude": 22.17018,
    "longitude": 73.57551
  },
  {
    "_id": {
      "$oid": "6539279ee0265e4af914b9b1"
    },
    "name": "Anti Corruption Bureau Police Station",
    "area": "Talav Darbaza Road",
    "district": "Kadiwad",
    "state": "Gujarat",
    "pincode": "",
    "latitude": 21.51922,
    "longitude": 70.45972
  },
  {
    "_id": {
      "$oid": "6539279ee0265e4af914b9b2"
    },
    "name": "Mamlatdar And Exclusive Magistrate Ni Kacheri Police Colony",
    "area": "Jila Panchayat Road",
    "district": "Office",
    "state": "Gujarat",
    "pincode": "",
    "latitude": 22.72544,
    "longitude": 71.62463
  },
  {
    "_id": {
      "$oid": "6539279ee0265e4af914b9b3"
    },
    "name": "Gopipura Police Station",
    "area": "Chairs Bazar Road",
    "district": "Market",
    "state": "Gujarat",
    "pincode": "",
    "latitude": 21.19366,
    "longitude": 72.82539
  },
  {
    "_id": {
      "$oid": "6539279ee0265e4af914b9b4"
    },
    "name": "Detection Of Crime Branch Surat City Gopipura",
    "area": "Dariya Mahal Rd",
    "district": "Nagar",
    "state": "Gujarat",
    "pincode": "",
    "latitude": 21.19826,
    "longitude": 72.8195
  },
  {
    "_id": {
      "$oid": "6539279ee0265e4af914b9b5"
    },
    "name": "Gorwa Police Station",
    "area": "Gujarat Refinery Road",
    "district": "And",
    "state": "Gujarat",
    "pincode": "",
    "latitude": 22.33346,
    "longitude": 73.15724
  },
  {
    "_id": {
      "$oid": "6539279ee0265e4af914b9b6"
    },
    "name": "Police Station Dasai Bara",
    "area": "Junagarh Road",
    "district": "Nagar",
    "state": "Gujarat",
    "pincode": "",
    "latitude": 21.7524,
    "longitude": 70.6166
  },
  {
    "_id": {
      "$oid": "6539279ee0265e4af914b9b7"
    },
    "name": "Harij Police Station",
    "area": "Becharaji To Harij Road",
    "district": "Mandir",
    "state": "Gujarat",
    "pincode": "",
    "latitude": 23.69322,
    "longitude": 71.90742
  },
  {
    "_id": {
      "$oid": "6539279ee0265e4af914b9b8"
    },
    "name": "Bahucharaji Police Station",
    "area": "SH-7",
    "district": "Chanasma",
    "state": "Gujarat",
    "pincode": "",
    "latitude": 23.49842,
    "longitude": 72.04467
  },
  {
    "_id": {
      "$oid": "6539279ee0265e4af914b9b9"
    },
    "name": "Bahucharaji Police Chowki",
    "area": "Bahucharaji Road",
    "district": "Nagarwada",
    "state": "Gujarat",
    "pincode": "",
    "latitude": 22.30729,
    "longitude": 73.20016
  },
  {
    "_id": {
      "$oid": "6539279ee0265e4af914b9ba"
    },
    "name": "B Division Police Station Wadhwan Phase 3",
    "area": "Tramway Road",
    "district": "Hyundai",
    "state": "Gujarat",
    "pincode": "",
    "latitude": 22.71914,
    "longitude": 71.66021
  },
  {
    "_id": {
      "$oid": "6539279ee0265e4af914b9bb"
    },
    "name": "Police Station Santej",
    "area": "Santej Sub Post Office",
    "district": "Santej",
    "state": "Gujarat",
    "pincode": "",
    "latitude": 23.10765,
    "longitude": 72.47242
  },
  {
    "_id": {
      "$oid": "6539279ee0265e4af914b9bc"
    },
    "name": "Pandesara Bhestan Police Station",
    "area": "Udhana Main Road",
    "district": "Bhestan",
    "state": "Gujarat",
    "pincode": "",
    "latitude": 21.128,
    "longitude": 72.85506
  },
  {
    "_id": {
      "$oid": "6539279ee0265e4af914b9bd"
    },
    "name": "Pandesara Police Station",
    "area": "Rey Road",
    "district": "Police",
    "state": "Gujarat",
    "pincode": "",
    "latitude": 21.14191,
    "longitude": 72.83979
  },
  {
    "_id": {
      "$oid": "6539279ee0265e4af914b9be"
    },
    "name": "Gujarat Housing Police Chowki Pandesara",
    "area": "Middle Ring Road",
    "district": "Om",
    "state": "Gujarat",
    "pincode": "",
    "latitude": 21.14861,
    "longitude": 72.83209
  },